[{"id":"110006625072","triId":null,"camdId":null,"eisId":"7288511","name":"3 RIVERS FLOORING","address":"200 BROOKS ROAD","city":"MARKS","state":"MS","zip":"38646","lat":34.241333,"lon":-90.272389,"permitType":"Federally Reportable Minor","isMajor":false,"hasHpv":false,"dataSource":"ECHO","naics":"321211","sector":"Wood Products","hasNei2023":false},{"id":"110072101870","triId":null,"camdId":null,"eisId":null,"name":"48FORTY SOLUTIONS LLC, SITE 239-JACKSON","address":"750 BOLING STREET","city":"JACKSON","state":"MS","zip":"39209","lat":32.33755,"lon":-90.23977,"permitType":"Major","isMajor":true,"hasHpv":false,"dataSource":"ECHO","naics":"321920","sector":"Wood Products","hasNei2023":false},{"id":"110043178815","triId":null,"camdId":null,"eisId":null,"name":"51 CONCRETE LLC, MCKEESON PLANT","address":"8313 POLK LANE","city":"OLIVE BRANCH","state":"MS","zip":"38654","lat":34.980648,"lon":-89.77771,"permitType":"Other","isMajor":false,"hasHpv":false,"dataSource":"ECHO","naics":"999999","sector":"Other","hasNei2023":false},{"id":"110070685956","triId":null,"camdId":null,"eisId":null,"name":"A J CONSTRUCTION INC, GALLATIN PLANT","address":"1090 MCDOWELL ROAD","city":"JACKSON","state":"MS","zip":"39204","lat":32.268188,"lon":-90.195444,"permitType":"Federally Reportable Minor","isMajor":false,"hasHpv":false,"dataSource":"ECHO","naics":"324121","sector":"Refinery","hasNei2023":false},{"id":"110040497218","triId":null,"camdId":null,"eisId":null,"name":"A PETS MEMORY PET FUNERAL HOME AND CREMATORY","address":"4435 ARCENEAUX ROAD","city":"D'IBERVILLE","state":"MS","zip":"39540","lat":30.446967,"lon":-88.913622,"permitType":"Federally Reportable Minor","isMajor":false,"hasHpv":false,"dataSource":"ECHO","naics":"812220","sector":"Other","hasNei2023":false},{"id":"110041352826","triId":null,"camdId":null,"eisId":null,"name":"A PETS MEMORY PET FUNERAL HOME AND CREMATORY","address":"1520 28TH STREET","city":"GULFPORT","state":"MS","zip":"39501","lat":30.384172,"lon":-89.080019,"permitType":"Federally Reportable Minor","isMajor":false,"hasHpv":false,"dataSource":"ECHO","naics":"812220","sector":"Other","hasNei2023":false},{"id":"110010344804","triId":null,"camdId":null,"eisId":null,"name":"A-1 QUALITY CLEANERS","address":"NOT GIVEN","city":"MISSISSIPPI","state":"MS","zip":"00000","lat":32.6864655,"lon":-89.6561493,"permitType":"Other","isMajor":false,"hasHpv":false,"dataSource":"ECHO","naics":"999999","sector":"Other","hasNei2023":false},{"id":"110024417709","triId":"39701BLDRL7INDU","camdId":null,"eisId":null,"name":"ABB MOTORS AND MECHANICAL INC","address":"70 INDUSTRIAL PARK ACCESS ROAD","city":"COLUMBUS","state":"MS","zip":"39701","lat":33.47829,"lon":-88.44085,"permitType":"Synthetic Minor","isMajor":false,"hasHpv":false,"dataSource":"ECHO","naics":"335312","sector":"Other","triYears":["2024","2023","2022","2021","2020","2019","2018","2017","2016"],"hasNei2023":false},{"id":"110000766261","triId":"38652HMCMT11DEN","camdId":null,"eisId":null,"name":"ABBY MANUFACTURING LLC","address":"1100 DENMILL ROAD","city":"NEW ALBANY","state":"MS","zip":"38652","lat":34.477056,"lon":-88.991639,"permitType":"Federally Reportable Minor","isMajor":false,"hasHpv":false,"dataSource":"ECHO","naics":"332112 999999","sector":"Metal Fabrication","hasNei2023":false},{"id":"110071722600","triId":null,"camdId":null,"eisId":null,"name":"AC POLYMERS INC","address":"103 LOWRY DRIVE","city":"BYHALIA","state":"MS","zip":"38611","lat":34.870253,"lon":-89.669006,"permitType":"Synthetic Minor","isMajor":false,"hasHpv":false,"dataSource":"ECHO","naics":"325211","sector":"Chemical","hasNei2023":false},{"id":"110000891278","triId":"38829QRTTM800PA","camdId":null,"eisId":"7276911","name":"ACCO BRANDS USA LLC","address":"300 QUARTET AVENUE","city":"BOONEVILLE","state":"MS","zip":"38829","lat":34.677167,"lon":-88.558889,"permitType":"Synthetic Minor","isMajor":false,"hasHpv":false,"dataSource":"ECHO","naics":"321999","sector":"Wood Products","hasNei2023":false},{"id":"110007109949","triId":"38866CTNNDTURNE","camdId":null,"eisId":null,"name":"ACTION INDUSTRIES INC, SALTILLO","address":"234 INDUSTRIAL PARK LANE","city":"SALTILLO","state":"MS","zip":"38866","lat":34.353333,"lon":-88.696611,"permitType":"Federally Reportable Minor","isMajor":false,"hasHpv":false,"dataSource":"ECHO","naics":"999999","sector":"Other","hasNei2023":false},{"id":"110002226458","triId":null,"camdId":null,"eisId":null,"name":"ADCAMP INC","address":"1365 FLOWOOD DRIVE","city":"FLOWOOD","state":"MS","zip":"39232","lat":32.304789,"lon":-90.141564,"permitType":"Federally Reportable Minor","isMajor":false,"hasHpv":false,"dataSource":"ECHO","naics":"324121","sector":"Refinery","hasNei2023":false},{"id":"110001472040","triId":null,"camdId":null,"eisId":null,"name":"ADCOMM GRAPHICS","address":"120 FRANKLIN STREET","city":"TUPELO","state":"MS","zip":"38802","lat":34.261676,"lon":-88.703702,"permitType":"Federally Reportable Minor","isMajor":false,"hasHpv":false,"dataSource":"ECHO","naics":"999999","sector":"Other","hasNei2023":false},{"id":"110030740857","triId":null,"camdId":null,"eisId":null,"name":"ADLAM FILMS LLC","address":"62 COUNTY ROAD 520","city":"SHANNON","state":"MS","zip":"38868","lat":34.154722,"lon":-88.708069,"permitType":"Synthetic Minor","isMajor":false,"hasHpv":false,"dataSource":"ECHO","naics":"322221","sector":"Paper/Pulp","hasNei2023":false},{"id":"110000376174","triId":"38901HTCRF1995A","camdId":null,"eisId":"7492011","name":"ADVANCED DISTRIBUTOR PRODUCTS LLC","address":"1995 AIR INDUSTRIAL PARK ROAD","city":"GRENADA","state":"MS","zip":"38901","lat":33.835842,"lon":-89.80835,"permitType":"Major","isMajor":true,"hasHpv":false,"dataSource":"ECHO","naics":"333415","sector":"Other","triYears":["2024","2023","2022","2021","2020","2019","2018","2017","2016"],"hasNei2023":true},{"id":"110016752316","triId":null,"camdId":null,"eisId":null,"name":"AIRBUS HELICOPTERS INC","address":"1782 AIRPORT ROAD","city":"COLUMBUS","state":"MS","zip":"39701","lat":33.45589,"lon":-88.58335,"permitType":"Federally Reportable Minor","isMajor":false,"hasHpv":false,"dataSource":"ECHO","naics":"336411","sector":"Transportation Equip","hasNei2023":false},{"id":"110056160960","triId":null,"camdId":null,"eisId":null,"name":"AITX RAILCAR SERVICES LLC,  BROOKHAVEN FACILITY","address":"113 BOYCE DRIVE","city":"BROOKHAVEN","state":"MS","zip":"38602","lat":31.59777,"lon":-90.43284,"permitType":"Synthetic Minor","isMajor":false,"hasHpv":false,"dataSource":"ECHO","naics":"488210","sector":"Other","hasNei2023":false},{"id":"110002061704","triId":null,"camdId":null,"eisId":null,"name":"AITX RAILCAR SERVICES, LLC","address":"375 SOUTH GERARD STREET","city":"BUDE","state":"MS","zip":"39630","lat":31.459583,"lon":-90.837778,"permitType":"Synthetic Minor","isMajor":false,"hasHpv":false,"dataSource":"ECHO","naics":"488210","sector":"Other","hasNei2023":false},{"id":"110071642673","triId":null,"camdId":null,"eisId":null,"name":"AJ CONSTRUCTION, INC. - HAZLEHURST PLANT","address":"HIGHWAY 28","city":"HAZLEHURST","state":"MS","zip":"39083","lat":31.8353248,"lon":-90.4672832,"permitType":"Federally Reportable Minor","isMajor":false,"hasHpv":false,"dataSource":"ECHO","naics":"324121","sector":"Refinery","hasNei2023":false},{"id":"110002475544","triId":null,"camdId":null,"eisId":null,"name":"ALACO OF MISSISSIPPI INC","address":"151 COUNTY ROAD 565","city":"RIPLEY","state":"MS","zip":"38663","lat":34.772949,"lon":-88.917931,"permitType":"Federally Reportable Minor","isMajor":false,"hasHpv":false,"dataSource":"ECHO","naics":"999999","sector":"Other","hasNei2023":false},{"id":"110061067713","triId":null,"camdId":null,"eisId":null,"name":"ALBANY INDUSTRIES INC, NEW ALBANY FACILITY","address":"504 NORTH GLENFIELD ROAD","city":"NEW ALBANY","state":"MS","zip":"38652","lat":34.526283,"lon":-89.03439,"permitType":"Synthetic Minor","isMajor":false,"hasHpv":false,"dataSource":"ECHO","naics":"326150","sector":"Plastics/Rubber","hasNei2023":false},{"id":"110002203160","triId":null,"camdId":null,"eisId":null,"name":"ALL STAR CLEANERS","address":"NOT GIVEN","city":"MISSISSIPPI","state":"MS","zip":"00000","lat":34.222629,"lon":-88.774588,"permitType":"Other","isMajor":false,"hasHpv":false,"dataSource":"ECHO","naics":"999999","sector":"Other","hasNei2023":false},{"id":"110043218238","triId":null,"camdId":null,"eisId":null,"name":"ALP LIGHTING COMPONENTS INC, OLIVE BRANCH FACILITY","address":"10630 MARINA DRIVE","city":"OLIVE BRANCH","state":"MS","zip":"38654","lat":34.988194,"lon":-89.800222,"permitType":"Federally Reportable Minor","isMajor":false,"hasHpv":false,"dataSource":"ECHO","naics":"999999","sector":"Other","hasNei2023":false},{"id":"110000602410","triId":"39520WLLMN3303P","camdId":null,"eisId":"7274711","name":"ALPEK POLYESTER MISSISSIPPI INC","address":"3303 PORT AND HARBOR DRIVE","city":"BAY ST. LOUI","state":"MS","zip":"39520","lat":30.233028,"lon":-89.561667,"permitType":"Major","isMajor":true,"hasHpv":false,"dataSource":"ECHO","naics":"325211","sector":"Chemical","triYears":["2024","2023","2022","2021","2020","2019","2018","2017","2016"],"hasNei2023":true},{"id":"110044666484","triId":null,"camdId":null,"eisId":null,"name":"ALTER TRADING CORPORATION - SARDIS","address":"690 BELMONT ROAD","city":"SARDIS","state":"MS","zip":"38666","lat":34.4181274,"lon":-89.9287723,"permitType":"Synthetic Minor","isMajor":false,"hasHpv":false,"dataSource":"ECHO","naics":"423930","sector":"Other","hasNei2023":false},{"id":"110071369395","triId":null,"camdId":null,"eisId":null,"name":"ALUMINUM DYNAMICS, LLC","address":"3413 CHARLEIGH D. FORD JR. DRIVE","city":"COLUMBUS","state":"MS","zip":"39701","lat":33.470546,"lon":-88.589964,"permitType":"Major","isMajor":true,"hasHpv":false,"dataSource":"ECHO","naics":"331315","sector":"Other","hasNei2023":false},{"id":"110071424758","triId":null,"camdId":null,"eisId":null,"name":"AMAZON DATA SERVICES INC, MADISON MEGA SITE","address":"1978 HIGHWAY 22","city":"CANTON","state":"MS","zip":"39046","lat":32.58749,"lon":-90.09539,"permitType":"Major","isMajor":true,"hasHpv":false,"dataSource":"ECHO","naics":"518210 999999","sector":"Other","hasNei2023":false},{"id":"110002218537","triId":null,"camdId":null,"eisId":"6314211","name":"AMCO MANUFACTURING COMPANY, LLC","address":"800 SOUTH INDUSTRIAL PARKWAY","city":"YAZOO CITY","state":"MS","zip":"39194","lat":32.841128,"lon":-90.43445,"permitType":"Synthetic Minor","isMajor":false,"hasHpv":false,"dataSource":"ECHO","naics":"333111","sector":"Other","hasNei2023":false},{"id":"110010345000","triId":null,"camdId":null,"eisId":null,"name":"AMERICAN CAR CARE CENTER","address":"1410 HWY 80 WEST","city":"JACKSON","state":"MS","zip":"00000","lat":32.28652,"lon":-90.20912,"permitType":"Federally Reportable Minor","isMajor":false,"hasHpv":false,"dataSource":"ECHO","naics":"999999","sector":"Other","hasNei2023":false},{"id":"110008513705","triId":null,"camdId":null,"eisId":null,"name":"AMERICAN MIDSTREAM MISSISSIPPI LLC, BISHOP COOLEY PIGGING STATION","address":"HIGHWAY 45 NORTH","city":"WAYNESBORO","state":"MS","zip":"39367","lat":31.824167,"lon":-88.697222,"permitType":"Federally Reportable Minor","isMajor":false,"hasHpv":false,"dataSource":"ECHO","naics":"999999","sector":"Other","hasNei2023":false},{"id":"110008514125","triId":null,"camdId":null,"eisId":"6252411","name":"AMERICAN MIDSTREAM MISSISSIPPI LLC, LAKE COMO COMPRESSOR STATION","address":"LAKE COMO","city":"BAY SPRINGS","state":"MS","zip":"39347","lat":31.960304,"lon":-89.183409,"permitType":"Federally Reportable Minor","isMajor":false,"hasHpv":false,"dataSource":"ECHO","naics":"999999","sector":"Other","hasNei2023":false},{"id":"110008514134","triId":null,"camdId":null,"eisId":"7054111","name":"AMERICAN MIDSTREAM MISSISSIPPI LLC, WEST NANCY COMPRESSOR STATION","address":"CLARKE COUNTY ROAD 280","city":"PACHUTA","state":"MS","zip":"39347","lat":31.955278,"lon":-88.901028,"permitType":"Federally Reportable Minor","isMajor":false,"hasHpv":false,"dataSource":"ECHO","naics":"486210","sector":"Pipeline/Compressor","hasNei2023":false},{"id":"110016795636","triId":null,"camdId":null,"eisId":"6284811","name":"AMERICAN PACKAGING","address":"210 BEULAH AVENUE, SUITE A","city":"TYLERTOWN","state":"MS","zip":"39667","lat":31.113861,"lon":-90.133361,"permitType":"Federally Reportable Minor","isMajor":false,"hasHpv":false,"dataSource":"ECHO","naics":"326111","sector":"Plastics/Rubber","hasNei2023":false},{"id":"110002208575","triId":"39452MRCNT274EV","camdId":null,"eisId":"7490911","name":"AMERICAN TANK & VESSEL, INC","address":"P.O. BOX 118 (274 EVANSTON RD)","city":"LUCEDALE","state":"MS","zip":"39452","lat":30.915944,"lon":-88.554694,"permitType":"Federally Reportable Minor","isMajor":false,"hasHpv":false,"dataSource":"ECHO","naics":"336399","sector":"Transportation Equip","triYears":["2024","2023","2022","2021","2020","2019","2018","2017","2016"],"hasNei2023":true},{"id":"110002225985","triId":"39440CNTNN2HAWK","camdId":null,"eisId":"7036011","name":"AMICK FARMS LLC","address":"NUMBER 2, 631 HAWKS ROAD","city":"LAUREL","state":"MS","zip":"39440","lat":31.755833,"lon":-89.071389,"permitType":"Synthetic Minor","isMajor":false,"hasHpv":false,"dataSource":"ECHO","naics":"311119","sector":"Food Processing","triYears":["2024","2023","2022","2021","2020","2019","2018","2017"],"hasNei2023":false},{"id":"110055654162","triId":"3963WMTBNRGERGI","camdId":null,"eisId":"16518111","name":"AMITE BIOENERGY LLC, WOOD PELLET MANUFACTURING FACILITY","address":"1763 GEORGIA PACIFIC ROAD","city":"GLOSTER","state":"MS","zip":"39638","lat":31.184742,"lon":-91.035561,"permitType":"Major","isMajor":true,"hasHpv":false,"dataSource":"ECHO","naics":"321999","sector":"Wood Products","triYears":["2024","2023","2022","2021","2020","2019","2018","2017","2016"],"hasNei2023":true},{"id":"110007108959","triId":null,"camdId":null,"eisId":null,"name":"AMR SERVICES CORPORATION","address":"JACKSON INTERNATIONAL AIRPORT","city":"JACKSON","state":"MS","zip":"39298","lat":32.3158308,"lon":-90.2128226,"permitType":"Federally Reportable Minor","isMajor":false,"hasHpv":false,"dataSource":"ECHO","naics":"999999","sector":"Other","hasNei2023":false},{"id":"110039139571","triId":null,"camdId":null,"eisId":null,"name":"ANADARKO PETROLEUM CORPORATION, TRUMPET 29 1 PRODUCTION FACILITY","address":"HIGHWAY 47","city":"MONTPELIER","state":"MS","zip":"39773","lat":33.65967,"lon":-88.782468,"permitType":"Federally Reportable Minor","isMajor":false,"hasHpv":false,"dataSource":"ECHO","naics":"211112","sector":"Oil & Gas","hasNei2023":false},{"id":"110007648867","triId":null,"camdId":null,"eisId":"7052111","name":"ANEL CORPORATION","address":"3244 HIGHWAY 51 SOUTH","city":"WINONA","state":"MS","zip":"38967","lat":33.500276,"lon":-89.736315,"permitType":"Synthetic Minor","isMajor":false,"hasHpv":false,"dataSource":"ECHO","naics":"332312","sector":"Metal Fabrication","hasNei2023":false},{"id":"110002209333","triId":null,"camdId":null,"eisId":null,"name":"ANGLIN TIRE CO","address":"926 I-20 WEST","city":"JACKSON","state":"MS","zip":"00000","lat":32.274793,"lon":-90.205963,"permitType":"Federally Reportable Minor","isMajor":false,"hasHpv":false,"dataSource":"ECHO","naics":"999999","sector":"Other","hasNei2023":false},{"id":"110012665419","triId":null,"camdId":null,"eisId":"7083811","name":"ANR PIPELINE COMPANY, GREENVILLE COMPRESSOR STATION","address":"1336 SOUTH RACEWAY ROAD","city":"GREENVILLE","state":"MS","zip":"38704","lat":33.372167,"lon":-91.00575,"permitType":"Major","isMajor":true,"hasHpv":false,"dataSource":"ECHO","naics":"221210","sector":"Other","hasNei2023":true},{"id":"110009113645","triId":null,"camdId":null,"eisId":"6992811","name":"ANR PIPELINE COMPANY, SARDIS COMPRESSOR STATION","address":"2099 HOLLY GROVE ROAD","city":"SARDIS","state":"MS","zip":"38666","lat":34.423067,"lon":-90.125564,"permitType":"Major","isMajor":true,"hasHpv":false,"dataSource":"ECHO","naics":"221210","sector":"Other","hasNei2023":true},{"id":"110001473423","triId":null,"camdId":null,"eisId":"7182211","name":"APAC MISSISSIPPI INC, BAILEY ROAD MINE","address":"2050 BAILEY ROAD","city":"GEORGETOWN","state":"MS","zip":"39078","lat":31.8979,"lon":-90.26387,"permitType":"Federally Reportable Minor","isMajor":false,"hasHpv":false,"dataSource":"ECHO","naics":"212321 324121","sector":"Other","hasNei2023":false},{"id":"110061592147","triId":null,"camdId":null,"eisId":null,"name":"APAC MISSISSIPPI INC, CANTON","address":"117 TYLER DRIVE","city":"CANTON","state":"MS","zip":"39046","lat":32.589728,"lon":-90.048892,"permitType":"Federally Reportable Minor","isMajor":false,"hasHpv":false,"dataSource":"ECHO","naics":"324121","sector":"Refinery","hasNei2023":false},{"id":"110002203838","triId":"39701PCMSS462LA","camdId":null,"eisId":null,"name":"APAC MISSISSIPPI INC, COLUMBUS","address":"462 LAKE NORRIS ROAD","city":"COLUMBUS","state":"MS","zip":"39701","lat":33.476917,"lon":-88.413889,"permitType":"Federally Reportable Minor","isMajor":false,"hasHpv":false,"dataSource":"ECHO","naics":"237310 327320 999999","sector":"Other","hasNei2023":false},{"id":"110071642676","triId":null,"camdId":null,"eisId":null,"name":"APAC MISSISSIPPI INC, DURANT ASPHALT PLANT","address":"136 INDUSTRIAL PARK ROAD","city":"DURANT","state":"MS","zip":"39063","lat":33.10165,"lon":-89.8994,"permitType":"Federally Reportable Minor","isMajor":false,"hasHpv":false,"dataSource":"ECHO","naics":"324121","sector":"Refinery","hasNei2023":false},{"id":"110013394987","triId":null,"camdId":null,"eisId":null,"name":"APAC MISSISSIPPI INC, GLEN","address":"2700 HIGHWAY 72 EAST","city":"GLEN","state":"MS","zip":"38846","lat":34.856722,"lon":-88.389,"permitType":"Federally Reportable Minor","isMajor":false,"hasHpv":false,"dataSource":"ECHO","naics":"237310","sector":"Other","hasNei2023":false},{"id":"110071724074","triId":"3870WPCMSS2559H","camdId":null,"eisId":null,"name":"APAC MISSISSIPPI INC, GREENVILLE ASPHALT PLANT","address":"2559 HARBOR FRONT ROAD","city":"GREENVILLE","state":"MS","zip":"38704","lat":33.361114,"lon":-91.106969,"permitType":"Federally Reportable Minor","isMajor":false,"hasHpv":false,"dataSource":"ECHO","naics":"324121","sector":"Refinery","triYears":["2024"],"hasNei2023":false},{"id":"110043962076","triId":null,"camdId":null,"eisId":null,"name":"APAC MISSISSIPPI INC, GREENWOOD ASPHALT PLANT","address":"1801 CYPRESS AVENUE","city":"GREENWOOD","state":"MS","zip":"39830","lat":33.50661,"lon":-90.19904,"permitType":"Federally Reportable Minor","isMajor":false,"hasHpv":false,"dataSource":"ECHO","naics":"324121 999999","sector":"Refinery","hasNei2023":false},{"id":"110010344289","triId":null,"camdId":null,"eisId":null,"name":"APAC MISSISSIPPI INC, HAMILTON HIGHWAY 45, SCRIBNER PIT","address":"40108 FLOWER FARM ROAD","city":"HAMILTON","state":"MS","zip":"39746","lat":33.697783,"lon":-88.438333,"permitType":"Federally Reportable Minor","isMajor":false,"hasHpv":false,"dataSource":"ECHO","naics":"212321 324121","sector":"Other","hasNei2023":false},{"id":"110022887054","triId":null,"camdId":null,"eisId":null,"name":"APAC MISSISSIPPI INC, MERIDIAN PLANT","address":"2785 A SELLERS DRIVE","city":"MERIDIAN","state":"MS","zip":"39305","lat":32.389056,"lon":-88.6635,"permitType":"Federally Reportable Minor","isMajor":false,"hasHpv":false,"dataSource":"ECHO","naics":"324121","sector":"Refinery","hasNei2023":false},{"id":"110002214130","triId":"39212PCMSS2902M","camdId":null,"eisId":"8231011","name":"APAC MISSISSIPPI INC, METER ROAD","address":"2902 METER ROAD","city":"JACKSON","state":"MS","zip":"39204","lat":32.2632,"lon":-90.2076,"permitType":"Federally Reportable Minor","isMajor":false,"hasHpv":false,"dataSource":"ECHO","naics":"324121","sector":"Refinery","triYears":["2024","2023","2022","2021","2020","2019","2018","2017"],"hasNei2023":false},{"id":"110007375250","triId":null,"camdId":null,"eisId":"15422111","name":"APAC MISSISSIPPI INC, MORTON ASPHALT PLANT","address":"2142 HIGHWAY 80 WEST","city":"MORTON","state":"MS","zip":"39117","lat":32.290783,"lon":-89.681958,"permitType":"Federally Reportable Minor","isMajor":false,"hasHpv":false,"dataSource":"ECHO","naics":"324121","sector":"Refinery","hasNei2023":false},{"id":"110002213514","triId":null,"camdId":null,"eisId":null,"name":"APAC MISSISSIPPI INC, MOUNT OLIVE ASPHALT PLANT","address":"98 PEARCE ROAD","city":"MOUNT OLIVE","state":"MS","zip":"39119","lat":31.748444,"lon":-89.660333,"permitType":"Federally Reportable Minor","isMajor":false,"hasHpv":false,"dataSource":"ECHO","naics":"324121","sector":"Refinery","hasNei2023":false},{"id":"110001977576","triId":null,"camdId":null,"eisId":null,"name":"APAC MISSISSIPPI INC, NEW ALBANY PLANT","address":"110 GAP DRIVE","city":"NEW ALBANY","state":"MS","zip":"38663","lat":34.50828,"lon":-89.04854,"permitType":"Federally Reportable Minor","isMajor":false,"hasHpv":false,"dataSource":"ECHO","naics":"324121","sector":"Refinery","hasNei2023":false},{"id":"110001471657","triId":null,"camdId":null,"eisId":"6925411","name":"APAC MISSISSIPPI INC, TUPELO ASPHALT PLANT","address":"459 NORTH EASON BOULEVARD","city":"TUPELO","state":"MS","zip":"38802","lat":34.263078,"lon":-88.653336,"permitType":"Federally Reportable Minor","isMajor":false,"hasHpv":false,"dataSource":"ECHO","naics":"324121","sector":"Refinery","hasNei2023":false},{"id":"110002217556","triId":null,"camdId":null,"eisId":"6285111","name":"APAC MISSISSIPPI INC, VICKSBURG RIFLE RANGE ROAD","address":"4441 RIFLE RANGE ROAD","city":"VICKSBURG","state":"MS","zip":"39180","lat":32.293908,"lon":-90.897506,"permitType":"Federally Reportable Minor","isMajor":false,"hasHpv":false,"dataSource":"ECHO","naics":"324121","sector":"Refinery","hasNei2023":false},{"id":"110014323320","triId":null,"camdId":null,"eisId":null,"name":"APAC MISSISSIPPI INC, YAZOO CITY ASPHALT","address":"22431 HIGHWAY 3","city":"YAZOO CITY","state":"MS","zip":"39194","lat":32.83335,"lon":-90.435286,"permitType":"Federally Reportable Minor","isMajor":false,"hasHpv":false,"dataSource":"ECHO","naics":"324121","sector":"Refinery","hasNei2023":false},{"id":"110001473405","triId":"3912WWBLNS1STAT","camdId":null,"eisId":null,"name":"APAC MISSISSIPPI, INC CLOVERHILL MINE","address":"100 STATE PARK ROAD","city":"NATCHEZ","state":"MS","zip":"39120","lat":31.568622,"lon":-91.232503,"permitType":"Federally Reportable Minor","isMajor":false,"hasHpv":false,"dataSource":"ECHO","naics":"324121","sector":"Refinery","triYears":["2020","2019","2018","2017","2016"],"hasNei2023":false},{"id":"110070161893","triId":null,"camdId":null,"eisId":null,"name":"APAC-MISSISSIPPI INC, SHANNON PLANT","address":"5552 HIGHWAY 145","city":"SHANNON","state":"MS","zip":"38868","lat":34.155361,"lon":-88.719222,"permitType":"Federally Reportable Minor","isMajor":false,"hasHpv":false,"dataSource":"ECHO","naics":"324121","sector":"Refinery","hasNei2023":false},{"id":"110063228010","triId":null,"camdId":null,"eisId":null,"name":"APPLIANCE REPAIR CENTER,THE","address":"NOT AVAILABLE","city":"MISSISSIPPI","state":"MS","zip":"00000","lat":30.4012,"lon":-88.93462,"permitType":"Other","isMajor":false,"hasHpv":false,"dataSource":"ECHO","naics":"999999","sector":"Other","hasNei2023":false},{"id":"110000375674","triId":"38654MRCNN10800","camdId":null,"eisId":"7183911","name":"ARDAGH METAL PACKAGING USA CORP","address":"10800 MARINA DRIVE","city":"OLIVE BRANCH","state":"MS","zip":"38654","lat":34.988056,"lon":-89.7975,"permitType":"Major","isMajor":true,"hasHpv":false,"dataSource":"ECHO","naics":"332431","sector":"Metal Fabrication","triYears":["2024","2023","2022","2021","2020","2019","2018","2017","2016"],"hasNei2023":true},{"id":"110000590708","triId":"39204RMSTR1085U","camdId":null,"eisId":"8230911","name":"ARMSTRONG FLOORING INC","address":"1085 HIGHWAY 80 WEST","city":"JACKSON","state":"MS","zip":"39204","lat":32.283333,"lon":-90.208333,"permitType":"Federally Reportable Minor","isMajor":false,"hasHpv":false,"dataSource":"ECHO","naics":"326199","sector":"Plastics/Rubber","triYears":["2021","2020","2018","2017","2016"],"hasNei2023":false},{"id":"110008500577","triId":null,"camdId":null,"eisId":null,"name":"ARROW INDUSTRIES COMO CHARCOAL DIVISION","address":"HIGHWAY 51 SOUTH","city":"COMO","state":"MS","zip":"38619","lat":34.42862,"lon":-89.92479,"permitType":"Federally Reportable Minor","isMajor":false,"hasHpv":false,"dataSource":"ECHO","naics":"999999","sector":"Other","hasNei2023":false},{"id":"110002327651","triId":null,"camdId":null,"eisId":null,"name":"ASHLEY FURNITURE INDUSTRIES INC, RIPLEY FACILITY","address":"15900 HIGHWAY 15 NORTH","city":"RIPLEY","state":"MS","zip":"38663","lat":34.785689,"lon":-88.92956,"permitType":"Federally Reportable Minor","isMajor":false,"hasHpv":false,"dataSource":"ECHO","naics":"999999","sector":"Other","hasNei2023":false},{"id":"110010345180","triId":"38879LLSTL116LI","camdId":null,"eisId":"7062711","name":"ASHLEY FURNITURE INDUSTRIES INC, VERONA FACILITY","address":"108 LIPFORD ROAD","city":"VERONA","state":"MS","zip":"38879","lat":34.166683,"lon":-88.710289,"permitType":"Federally Reportable Minor","isMajor":false,"hasHpv":false,"dataSource":"ECHO","naics":"326150","sector":"Plastics/Rubber","hasNei2023":false},{"id":"110005973287","triId":null,"camdId":null,"eisId":null,"name":"ASTRO LOUNGER FURNITURE MANUFACTURING COMPANY INC","address":"HOULKA INDUSTRIAL PARK ROAD","city":"HOULKA","state":"MS","zip":"38850","lat":34.03427,"lon":-89.02973,"permitType":"Federally Reportable Minor","isMajor":false,"hasHpv":false,"dataSource":"ECHO","naics":"999999","sector":"Other","hasNei2023":false},{"id":"110001472656","triId":null,"camdId":null,"eisId":null,"name":"ATLAS MANUFACTURING COMPANY INC","address":"51 DOW DRIVE","city":"TREMONT","state":"MS","zip":"38876","lat":34.222511,"lon":-88.265019,"permitType":"Federally Reportable Minor","isMajor":false,"hasHpv":false,"dataSource":"ECHO","naics":"333111","sector":"Other","hasNei2023":false},{"id":"110000376986","triId":"39305TLSRF2322V","camdId":null,"eisId":"8482111","name":"ATLAS ROOFING CORPORATION","address":"2322 VALLEY ROAD","city":"MERIDIAN","state":"MS","zip":"39307","lat":32.33897,"lon":-88.72688,"permitType":"Major","isMajor":true,"hasHpv":false,"dataSource":"ECHO","naics":"324122","sector":"Refinery","triYears":["2024","2023","2022","2021","2020","2019","2018","2017","2016"],"hasNei2023":true},{"id":"110058904850","triId":null,"camdId":null,"eisId":null,"name":"AUSTRALIS TMS INC, ANDERSON 17H-1 PRODUCTION FACILITY","address":"RIVER ROAD AND WALL STREET ROAD","city":"LIBERTY","state":"MS","zip":"39645","lat":31.1359426,"lon":-90.7939904,"permitType":"Federally Reportable Minor","isMajor":false,"hasHpv":false,"dataSource":"ECHO","naics":"211111","sector":"Oil & Gas","hasNei2023":false},{"id":"110069429988","triId":null,"camdId":null,"eisId":null,"name":"AUSTRALIS TMS INC, ANDERSON 18H-1 PRODUCTION FACILITY","address":"RIVER ROAD AND WALL STREET ROAD","city":"GILLSBURG","state":"MS","zip":"39645","lat":31.1359426,"lon":-90.7939904,"permitType":"Federally Reportable Minor","isMajor":false,"hasHpv":false,"dataSource":"ECHO","naics":"211111","sector":"Oil & Gas","hasNei2023":false},{"id":"110066859064","triId":null,"camdId":null,"eisId":null,"name":"AUSTRALIS TMS INC, ASH 13H-1 AND 13H-2 PRODUCTION FACILITY","address":"OFF ASH ROAD","city":"CENTREVILLE","state":"MS","zip":"39631","lat":31.0672087,"lon":-91.1340053,"permitType":"Synthetic Minor","isMajor":false,"hasHpv":false,"dataSource":"ECHO","naics":"211111","sector":"Oil & Gas","hasNei2023":false},{"id":"110044432325","triId":null,"camdId":null,"eisId":"15440311","name":"AUSTRALIS TMS INC, BOE NUMBER 1-H PRODUCTION FACILITY","address":"MERWIN BENNETT ROAD","city":"LIBERTY","state":"MS","zip":"39645","lat":31.056043,"lon":-90.702604,"permitType":"Federally Reportable Minor","isMajor":false,"hasHpv":false,"dataSource":"ECHO","naics":"211111","sector":"Oil & Gas","hasNei2023":false},{"id":"110056291347","triId":null,"camdId":null,"eisId":null,"name":"AUSTRALIS TMS INC, JOE JACKSON 4H-2 PRODUCTION FACILITY","address":"HIGHWAY 24 AND LOWER LIBERTY GLOSTER ROAD","city":"LIBERTY","state":"MS","zip":"39645","lat":31.1359426,"lon":-90.7939904,"permitType":"Federally Reportable Minor","isMajor":false,"hasHpv":false,"dataSource":"ECHO","naics":"211111","sector":"Oil & Gas","hasNei2023":false},{"id":"110069218545","triId":null,"camdId":null,"eisId":null,"name":"AUSTRALIS TMS INC, LAWSON 25H-1 AND 25-13H-1 PRODUCTION FACILITY","address":"MS HIGHWAY 568 AND 584","city":"GILLSBURG","state":"MS","zip":"39657","lat":31.0403238,"lon":-90.5062677,"permitType":"Federally Reportable Minor","isMajor":false,"hasHpv":false,"dataSource":"ECHO","naics":"211111","sector":"Oil & Gas","hasNei2023":false},{"id":"110061084730","triId":null,"camdId":null,"eisId":null,"name":"AUSTRALIS TMS INC, LEWIS 7-18H-1 PRODUCTION FACILITY","address":"COUNTY FARM ROAD","city":"LIBERTY","state":"MS","zip":"39645","lat":31.1359426,"lon":-90.7939904,"permitType":"Federally Reportable Minor","isMajor":false,"hasHpv":false,"dataSource":"ECHO","naics":"211111","sector":"Oil & Gas","hasNei2023":false},{"id":"110061084749","triId":null,"camdId":null,"eisId":null,"name":"AUSTRALIS TMS INC, LONGLEAF 29H-1 AND 29H-2 PRODUCTION FACILITY","address":"OFF TOBIAS LANE","city":"LIBERTY","state":"MS","zip":"39631","lat":31.0672087,"lon":-91.1340053,"permitType":"Federally Reportable Minor","isMajor":false,"hasHpv":false,"dataSource":"ECHO","naics":"211111","sector":"Oil & Gas","hasNei2023":false},{"id":"110070604334","triId":null,"camdId":null,"eisId":null,"name":"AUSTRALIS TMS INC, LYONS 35H-1 AND 35H-2 PRODUCTION FACILITY","address":"OFF PEPPERHOUSE ROAD","city":"CENTREVILLE","state":"MS","zip":"39631","lat":31.0672087,"lon":-91.1340053,"permitType":"Federally Reportable Minor","isMajor":false,"hasHpv":false,"dataSource":"ECHO","naics":"211111","sector":"Oil & Gas","hasNei2023":false},{"id":"110062707637","triId":null,"camdId":null,"eisId":null,"name":"AUSTRALIS TMS INC, MATHIS 29-32H-1 AND 29-17H-1 PRODUCTION FACILITY","address":"LOUISIANA HIGHWAY 1044","city":"GILLSBURG","state":"MS","zip":"39657","lat":31.0403238,"lon":-90.5062677,"permitType":"Federally Reportable Minor","isMajor":false,"hasHpv":false,"dataSource":"ECHO","naics":"211111","sector":"Oil & Gas","hasNei2023":false},{"id":"110066859581","triId":null,"camdId":null,"eisId":null,"name":"AUSTRALIS TMS INC, REESE 16H-1 AND MCINTOSH 15H-1 PRODUCTION FACILITY","address":"CHANCE ROAD TO ACCESS ROAD","city":"CENTREVILLE","state":"MS","zip":"39631","lat":31.0672087,"lon":-91.1340053,"permitType":"Federally Reportable Minor","isMajor":false,"hasHpv":false,"dataSource":"ECHO","naics":"211111","sector":"Oil & Gas","hasNei2023":false},{"id":"110061070861","triId":null,"camdId":null,"eisId":null,"name":"AUSTRALIS TMS INC, SABINE 12H-1 AND 12H-2 PRODUCTION FACILITY","address":"KINABREW LANE TO ACCESS ROAD","city":"LIBERTY","state":"MS","zip":"39645","lat":31.14505,"lon":-90.86038,"permitType":"Federally Reportable Minor","isMajor":false,"hasHpv":false,"dataSource":"ECHO","naics":"211111","sector":"Oil & Gas","hasNei2023":false},{"id":"110070832765","triId":null,"camdId":null,"eisId":null,"name":"AUSTRALIS TMS INC, SAXBY 10H-1 AND QUIN 30H-1 PRODUCTION FACILITY","address":"SOUTH GREENSBURG ROAD","city":"LIBERTY","state":"MS","zip":"39645","lat":31.1359426,"lon":-90.7939904,"permitType":"Federally Reportable Minor","isMajor":false,"hasHpv":false,"dataSource":"ECHO","naics":"211111","sector":"Oil & Gas","hasNei2023":false},{"id":"110066859670","triId":null,"camdId":null,"eisId":null,"name":"AUSTRALIS TMS INC, STEWART 30H-1 AND BERGOLD 29H-1 PRODUCTION FACILITY","address":"HIGHWAY 584 TO ACCESS ROAD","city":"GILLSBURG","state":"MS","zip":"39631","lat":31.0672087,"lon":-91.1340053,"permitType":"Federally Reportable Minor","isMajor":false,"hasHpv":false,"dataSource":"ECHO","naics":"211111","sector":"Oil & Gas","hasNei2023":false},{"id":"110070681000","triId":null,"camdId":null,"eisId":null,"name":"AUSTRALIS TMS INC, TAYLOR WILLIAMS PRODUCTION FACILITY","address":"OFF BEAN ROAD","city":"GILLSBURG","state":"MS","zip":"39631","lat":31.021662,"lon":-90.683532,"permitType":"Federally Reportable Minor","isMajor":false,"hasHpv":false,"dataSource":"ECHO","naics":"211111","sector":"Oil & Gas","hasNei2023":false},{"id":"110056295110","triId":null,"camdId":null,"eisId":null,"name":"AUSTRALIS TMS, INC., ASH 31H-1 AND 31H-2 PROD. FACILITY","address":"SOUTH OF LOWER CENTREVILLE ROAD, OFF PERKINS ROAD","city":"CENTREVILLE","state":"MS","zip":"39631","lat":31.0672087,"lon":-91.1340053,"permitType":"Federally Reportable Minor","isMajor":false,"hasHpv":false,"dataSource":"ECHO","naics":"211111","sector":"Oil & Gas","hasNei2023":false},{"id":"110070604418","triId":null,"camdId":null,"eisId":null,"name":"AUSTRALIS TMS, INC., PINTARD 28H-1 AND 28H-2 PROD. FACILITY","address":"MACEDONIA ROAD","city":"CENTREVILLE","state":"MS","zip":"39631","lat":31.0672087,"lon":-91.1340053,"permitType":"Federally Reportable Minor","isMajor":false,"hasHpv":false,"dataSource":"ECHO","naics":"211111","sector":"Oil & Gas","hasNei2023":false},{"id":"110071722986","triId":null,"camdId":null,"eisId":null,"name":"AUTO PARTS MANUFACTURING MISSISSIPPI INC","address":"NORTH LEE INDUSTRIAL COMPLEX","city":"GUNTOWN","state":"MS","zip":"38849","lat":34.468861,"lon":-88.667583,"permitType":"Major","isMajor":true,"hasHpv":false,"dataSource":"ECHO","naics":"336211","sector":"Transportation Equip","hasNei2023":false},{"id":"110001473129","triId":null,"camdId":null,"eisId":null,"name":"AUTOMOTIVE PERFORMANCE SPECIALISTS","address":"668 SOUTH STATE STREET","city":"JACKSON (HISTORICAL)","state":"MS","zip":"39202","lat":32.2919,"lon":-90.18182,"permitType":"Other","isMajor":false,"hasHpv":false,"dataSource":"ECHO","naics":"811111","sector":"Other","hasNei2023":false},{"id":"110002205113","triId":null,"camdId":null,"eisId":null,"name":"AVON ENGINEERED FABRICATIONS INC","address":"113 STREET A","city":"PICAYUNE","state":"MS","zip":"39466","lat":30.51232,"lon":-89.68841,"permitType":"Major","isMajor":true,"hasHpv":false,"dataSource":"ECHO","naics":"326299","sector":"Plastics/Rubber","hasNei2023":false},{"id":"110008496243","triId":null,"camdId":null,"eisId":"7185511","name":"B AND B CONCRETE COMPANY","address":"445 SOUTH INDUSTRIAL PARK ROAD","city":"HOLLY SPRING","state":"MS","zip":"38635","lat":34.755278,"lon":-89.427972,"permitType":"Other","isMajor":false,"hasHpv":false,"dataSource":"ECHO","naics":"327320","sector":"Cement","hasNei2023":false},{"id":"110002228241","triId":"3883WBBCNC2724S","camdId":null,"eisId":"7151111","name":"B AND B CONCRETE COMPANY INC","address":"2724 SOUTH HARPER ROAD","city":"CORINTH","state":"MS","zip":"38834","lat":34.893861,"lon":-88.465722,"permitType":"Federally Reportable Minor","isMajor":false,"hasHpv":false,"dataSource":"ECHO","naics":"327320","sector":"Cement","triYears":["2021","2018","2017","2016"],"hasNei2023":false},{"id":"110042324222","triId":null,"camdId":null,"eisId":null,"name":"B AND B CONCRETE COMPANY INC, FULTON DIVISION","address":"799 SOUTH ACCESS ROAD","city":"FULTON","state":"MS","zip":"38843","lat":34.254972,"lon":-88.419972,"permitType":"Other","isMajor":false,"hasHpv":false,"dataSource":"ECHO","naics":"999999","sector":"Other","hasNei2023":false},{"id":"110064322157","triId":null,"camdId":null,"eisId":null,"name":"B AND B CONCRETE COMPANY INC, RIPLEY","address":"51A COUNTY ROAD 814","city":"RIPLEY","state":"MS","zip":"38663","lat":34.706278,"lon":-88.972472,"permitType":"Federally Reportable Minor","isMajor":false,"hasHpv":false,"dataSource":"ECHO","naics":"327320","sector":"Cement","hasNei2023":false},{"id":"110060257840","triId":"3956WBDPLS55ALL","camdId":null,"eisId":"17054811","name":"B AND D PLASTICS LLC","address":"5500 ALLEN ROAD","city":"GAUTIER","state":"MS","zip":"39565","lat":30.44122,"lon":-88.70068,"permitType":"Major","isMajor":true,"hasHpv":false,"dataSource":"ECHO","naics":"326199","sector":"Plastics/Rubber","triYears":["2024","2023","2022","2021","2020","2019","2018","2017","2016"],"hasNei2023":true},{"id":"110007398440","triId":null,"camdId":null,"eisId":null,"name":"B&M CLEANERS (N. PANOLA)","address":"NOT GIVEN","city":"MISSISSIPPI","state":"MS","zip":"00000","lat":34.62596,"lon":-89.96857,"permitType":"Other","isMajor":false,"hasHpv":false,"dataSource":"ECHO","naics":"999999","sector":"Other","hasNei2023":false},{"id":"110010344742","triId":null,"camdId":null,"eisId":null,"name":"B&M CLEANERS (S. PANOLA)","address":"NOT GIVEN","city":"MISSISSIPPI","state":"MS","zip":"00000","lat":34.61235,"lon":-89.96856,"permitType":"Other","isMajor":false,"hasHpv":false,"dataSource":"ECHO","naics":"562212","sector":"Waste Management","hasNei2023":false},{"id":"110000590691","triId":"39168GRGPCHIGHW","camdId":null,"eisId":"7305011","name":"BAKELITE CHEMICALS LLC, TAYLORSVILLE","address":"13136 HIGHWAY 28 WEST","city":"TAYLORSVILLE","state":"MS","zip":"39168","lat":31.8392,"lon":-89.4659,"permitType":"Major","isMajor":true,"hasHpv":false,"dataSource":"ECHO","naics":"325199","sector":"Chemical","triYears":["2024","2023","2022","2021","2020","2019","2018","2017","2016"],"hasNei2023":false},{"id":"110003997514","triId":"39440CHMLN3705I","camdId":null,"eisId":"7152311","name":"BAKER PETROLITE LLC","address":"3705 INDUSTRIAL BOULEVARD","city":"LAUREL","state":"MS","zip":"39440","lat":31.660361,"lon":-89.181361,"permitType":"Federally Reportable Minor","isMajor":false,"hasHpv":false,"dataSource":"ECHO","naics":"999999","sector":"Other","hasNei2023":false},{"id":"110002224708","triId":null,"camdId":null,"eisId":null,"name":"BAPTIST MEMORIAL HOSPITAL, DESOTO","address":"7601 SOUTHCREST PARKWAY","city":"SOUTHAVEN","state":"MS","zip":"38671","lat":34.97108,"lon":-89.99671,"permitType":"Synthetic Minor","isMajor":false,"hasHpv":false,"dataSource":"ECHO","naics":"622110","sector":"Other","hasNei2023":false},{"id":"110002327009","triId":null,"camdId":null,"eisId":null,"name":"BAPTIST MEMORIAL HOSPITAL, NEW ALBANY","address":"200 HIGHWAY 30 WEST","city":"NEW ALBANY","state":"MS","zip":"38652","lat":34.49834,"lon":-89.02809,"permitType":"Federally Reportable Minor","isMajor":false,"hasHpv":false,"dataSource":"ECHO","naics":"622110","sector":"Other","hasNei2023":false},{"id":"110022522965","triId":"39341BRGFR9BUGG","camdId":null,"eisId":"6945211","name":"BARGE FOREST PRODUCTS COMPANY","address":"901 BUGGS FERRY ROAD","city":"MACON","state":"MS","zip":"39341","lat":33.16215,"lon":-88.579766,"permitType":"Synthetic Minor","isMajor":false,"hasHpv":false,"dataSource":"ECHO","naics":"321113","sector":"Wood Products","hasNei2023":false},{"id":"110001471951","triId":null,"camdId":null,"eisId":"7082211","name":"BATESVILLE MANUFACTURING LLC, VICKSBURG","address":"687 WARRENTON LANE","city":"VICKSBURG","state":"MS","zip":"39180","lat":32.245569,"lon":-90.922794,"permitType":"Major","isMajor":true,"hasHpv":false,"dataSource":"ECHO","naics":"339995","sector":"Other","hasNei2023":true},{"id":"110001472380","triId":null,"camdId":null,"eisId":null,"name":"BAUHAUS USA INC","address":"1 BAUHAUS DRIVE","city":"SALTILLO","state":"MS","zip":"38866","lat":34.36488,"lon":-88.70291,"permitType":"Federally Reportable Minor","isMajor":false,"hasHpv":false,"dataSource":"ECHO","naics":"999999","sector":"Other","hasNei2023":false},{"id":"110000375816","triId":"38732BXTRHHIGHW","camdId":null,"eisId":"8485111","name":"BAXTER HEALTHCARE CORPORATION","address":"911 NORTH DAVIS AVENUE","city":"CLEVELAND","state":"MS","zip":"38732","lat":33.764467,"lon":-90.716953,"permitType":"Federally Reportable Minor","isMajor":false,"hasHpv":false,"dataSource":"ECHO","naics":"325412","sector":"Chemical","triYears":["2024","2023","2022","2021","2020","2019","2018","2017","2016"],"hasNei2023":true},{"id":"110013867306","triId":null,"camdId":null,"eisId":"6788211","name":"BAYOU CONCRETE LLC, BILOXI","address":"761 MOTSIE ROAD","city":"BILOXI","state":"MS","zip":"39530","lat":30.444444,"lon":-88.928639,"permitType":"Federally Reportable Minor","isMajor":false,"hasHpv":false,"dataSource":"ECHO","naics":"327320","sector":"Cement","hasNei2023":false},{"id":"110002474420","triId":"3950WBYCNC14312","camdId":null,"eisId":"6788611","name":"BAYOU CONCRETE LLC, CREOSOTE","address":"14312 CREOSOTE ROAD","city":"GULFPORT","state":"MS","zip":"39505","lat":30.428139,"lon":-89.075528,"permitType":"Federally Reportable Minor","isMajor":false,"hasHpv":false,"dataSource":"ECHO","naics":"327320","sector":"Cement","triYears":["2024","2023","2022","2021","2020","2019","2018","2017","2016"],"hasNei2023":false},{"id":"110007109967","triId":"3956WMTRCN3935H","camdId":null,"eisId":"6251711","name":"BAYOU CONCRETE LLC, HIGHWAY 57","address":"3935 HIGHWAY 57","city":"OCEAN SPRING","state":"MS","zip":"39564","lat":30.4,"lon":-88.72076,"permitType":"Federally Reportable Minor","isMajor":false,"hasHpv":false,"dataSource":"ECHO","naics":"327320","sector":"Cement","triYears":["2023","2019"],"hasNei2023":false},{"id":"110007393356","triId":"3953WMMCMT1678H","camdId":null,"eisId":"6800911","name":"BAYOU CONCRETE LLC, NORTH BILOXI","address":"16708 HIGHWAY 67","city":"BILOXI","state":"MS","zip":"39531","lat":30.391944,"lon":-88.892222,"permitType":"Federally Reportable Minor","isMajor":false,"hasHpv":false,"dataSource":"ECHO","naics":"327320","sector":"Cement","triYears":["2021"],"hasNei2023":false},{"id":"110002228223","triId":"3956WBYCNC559IN","camdId":null,"eisId":"6970011","name":"BAYOU CONCRETE LLC, PASCAGOULA","address":"5509 INDUSTRIAL BOULEVARD","city":"PASCAGOULA","state":"MS","zip":"39568","lat":30.38824,"lon":-88.50581,"permitType":"Federally Reportable Minor","isMajor":false,"hasHpv":false,"dataSource":"ECHO","naics":"327320","sector":"Cement","triYears":["2024","2023","2022","2021","2020","2019","2018","2017"],"hasNei2023":false},{"id":"110007647635","triId":null,"camdId":null,"eisId":null,"name":"BELK FORD-MERCURY TOYOTA","address":"447 HIGHWAY 6 NORTH","city":"MISSISSIPPI","state":"MS","zip":"38655","lat":34.320306,"lon":-89.368474,"permitType":"Federally Reportable Minor","isMajor":false,"hasHpv":false,"dataSource":"ECHO","naics":"999999","sector":"Other","hasNei2023":false},{"id":"110002447665","triId":"38663WDCRFMURRA","camdId":null,"eisId":"6999211","name":"BENCHCRAFT, RIPLEY FACILITIES","address":"750 COUNTY ROAD 549","city":"RIPLEY","state":"MS","zip":"38663","lat":34.773256,"lon":-88.91301,"permitType":"Federally Reportable Minor","isMajor":false,"hasHpv":false,"dataSource":"ECHO","naics":"999999","sector":"Other","triYears":["2019","2018","2017"],"hasNei2023":false},{"id":"110007109636","triId":null,"camdId":null,"eisId":null,"name":"BEST AUTOMOTIVE INC.","address":"224 N PEARSON ROAD","city":"MISSISSIPPI","state":"MS","zip":"39208","lat":32.27674,"lon":-90.13769,"permitType":"Other","isMajor":false,"hasHpv":false,"dataSource":"ECHO","naics":"999999","sector":"Other","hasNei2023":false},{"id":"110071722208","triId":null,"camdId":null,"eisId":null,"name":"BEST FOAM INC","address":"481 3RD AVENUE","city":"SHERMAN","state":"MS","zip":"38869","lat":34.356554,"lon":-88.841055,"permitType":"Synthetic Minor","isMajor":false,"hasHpv":false,"dataSource":"ECHO","naics":"326150","sector":"Plastics/Rubber","hasNei2023":false},{"id":"110063225399","triId":null,"camdId":null,"eisId":null,"name":"BFI WASTE SUSTEM","address":"NOT GIVEN","city":"MISSISSIPPI","state":"MS","zip":"00000","lat":32.6864655,"lon":-89.6561493,"permitType":"Other","isMajor":false,"hasHpv":false,"dataSource":"ECHO","naics":"999999","sector":"Other","hasNei2023":false},{"id":"110002221989","triId":null,"camdId":null,"eisId":"7853211","name":"BFI WASTE SYS. OF N. AMERICA,LITTLE DIXI","address":"1716 NORTH COUNTY LINE ROAD","city":"RIDGELAND","state":"MS","zip":"39157","lat":32.420516,"lon":-90.243588,"permitType":"Other","isMajor":false,"hasHpv":false,"dataSource":"ECHO","naics":"562212 999999","sector":"Waste Management","hasNei2023":true},{"id":"110002214185","triId":null,"camdId":null,"eisId":"7084911","name":"BFI WASTE SYSTEMS OF MISSISSIPPI LLC, BIG RIVER LANDFILL","address":"52 LANDFILL ROAD","city":"LELAND","state":"MS","zip":"38756","lat":33.406278,"lon":-90.960639,"permitType":"Major","isMajor":true,"hasHpv":false,"dataSource":"ECHO","naics":"562212","sector":"Waste Management","hasNei2023":true},{"id":"110067569116","triId":null,"camdId":null,"eisId":"17940111","name":"BIEWER SAWMILL NEWTON LLC","address":"331 COLISEUM DRIVE","city":"NEWTON","state":"MS","zip":"39345","lat":32.361944,"lon":-89.133889,"permitType":"Major","isMajor":true,"hasHpv":false,"dataSource":"ECHO","naics":"321113","sector":"Wood Products","hasNei2023":true},{"id":"110070881244","triId":null,"camdId":null,"eisId":null,"name":"BIEWER SAWMILL WINONA INC","address":"625 SAWYER ROAD","city":"WINONA","state":"MS","zip":"38967","lat":33.525278,"lon":-89.726389,"permitType":"Major","isMajor":true,"hasHpv":false,"dataSource":"ECHO","naics":"321113","sector":"Wood Products","hasNei2023":false},{"id":"110063233399","triId":null,"camdId":null,"eisId":null,"name":"BIG K AUTOMOTIVE","address":"NOT GIVEN","city":"MISSISSIPPI","state":"MS","zip":"00000","lat":32.6864655,"lon":-89.6561493,"permitType":"Other","isMajor":false,"hasHpv":false,"dataSource":"ECHO","naics":"999999","sector":"Other","hasNei2023":false},{"id":"110007108888","triId":null,"camdId":null,"eisId":null,"name":"BIG K OIL CO","address":"1102 SOUTH MAIN ST","city":"MISSISSIPPI","state":"MS","zip":"39470","lat":30.835187,"lon":-89.530502,"permitType":"Federally Reportable Minor","isMajor":false,"hasHpv":false,"dataSource":"ECHO","naics":"999999","sector":"Other","hasNei2023":false},{"id":"110008512092","triId":null,"camdId":null,"eisId":null,"name":"BIGGERSVILLE GIN COMPANY","address":"HIGHWAY 45 SOUTH","city":"CORINTH","state":"MS","zip":"38834","lat":34.8625,"lon":-88.5593,"permitType":"Federally Reportable Minor","isMajor":false,"hasHpv":false,"dataSource":"ECHO","naics":"999999","sector":"Other","hasNei2023":false},{"id":"110001472843","triId":null,"camdId":null,"eisId":"7167911","name":"BIMBO BAKERIES USA INC","address":"3400 SAINT PAUL STREET","city":"MERIDIAN","state":"MS","zip":"39301","lat":32.350844,"lon":-88.711961,"permitType":"Major","isMajor":true,"hasHpv":false,"dataSource":"ECHO","naics":"311812","sector":"Food Processing","hasNei2023":true},{"id":"110066858813","triId":null,"camdId":null,"eisId":null,"name":"BLACK SNAKE PETROLEUM LLC, HOLLIMAN 7-13","address":"4525 CAL KOLOLA ROAD","city":"CALEDONIA","state":"MS","zip":"39740","lat":33.68344,"lon":-88.35773,"permitType":"Federally Reportable Minor","isMajor":false,"hasHpv":false,"dataSource":"ECHO","naics":"211111","sector":"Oil & Gas","hasNei2023":false},{"id":"110067384583","triId":null,"camdId":null,"eisId":null,"name":"BLACK SNAKE PETROLEUM, LLC, MB 26-1H NUMBER 1 FACILITY","address":"OFF SPRUILL ROAD","city":"CALEDONIA","state":"MS","zip":"39740","lat":33.7150019,"lon":-88.3157449,"permitType":"Federally Reportable Minor","isMajor":false,"hasHpv":false,"dataSource":"ECHO","naics":"211111","sector":"Oil & Gas","hasNei2023":false},{"id":"110001471942","triId":null,"camdId":null,"eisId":null,"name":"BLACKLIDGE EMULSIONS INC","address":"11030 REICHOLD ROAD","city":"GULFPORT","state":"MS","zip":"39503","lat":30.42635,"lon":-89.01816,"permitType":"Federally Reportable Minor","isMajor":false,"hasHpv":false,"dataSource":"ECHO","naics":"324110 324121","sector":"Refinery","hasNei2023":false},{"id":"110007015167","triId":null,"camdId":null,"eisId":null,"name":"BLUE MOUNTAIN PRODUCTION COMPANY, TAYLOR AND PLANT PROPERTY MINE","address":"31 COUNTY ROAD 827","city":"BLUE MOUNTAI","state":"MS","zip":"38610","lat":34.648333,"lon":-89.024444,"permitType":"Major","isMajor":true,"hasHpv":false,"dataSource":"ECHO","naics":"212321 212325","sector":"Other","hasNei2023":false},{"id":"110002208682","triId":null,"camdId":null,"eisId":null,"name":"BLUE RIBBON CLEANERS & LAUNDRY","address":"116 EAST COMMERCE","city":"HERNANDO","state":"MS","zip":"38632","lat":34.823627,"lon":-89.987431,"permitType":"Federally Reportable Minor","isMajor":false,"hasHpv":false,"dataSource":"ECHO","naics":"999999","sector":"Other","hasNei2023":false},{"id":"110000376815","triId":"39212DBLCT951PR","camdId":null,"eisId":null,"name":"BLUESCOPE COATED PRODUCTS LLC","address":"951 PRISOCK ROAD","city":"JACKSON","state":"MS","zip":"39272","lat":32.159461,"lon":-90.258342,"permitType":"Major","isMajor":true,"hasHpv":false,"dataSource":"ECHO","naics":"332812","sector":"Metal Fabrication","triYears":["2024","2023","2022","2021","2020","2019","2018","2017","2016"],"hasNei2023":false},{"id":"110001977255","triId":null,"camdId":null,"eisId":null,"name":"BOB'S AUTO SERVICE","address":"1811 11TH STREET","city":"MERIDIAN","state":"MS","zip":"39301","lat":32.367759,"lon":-88.69682,"permitType":"Other","isMajor":false,"hasHpv":false,"dataSource":"ECHO","naics":"811111","sector":"Other","hasNei2023":false},{"id":"110002224147","triId":null,"camdId":null,"eisId":"6787911","name":"BOLLINGER GULFPORT SHIPBUILDING, LLC","address":"13085 INDUSTRIAL SEAWAY ROAD","city":"GULFPORT","state":"MS","zip":"39503","lat":30.434306,"lon":-89.056306,"permitType":"Major","isMajor":true,"hasHpv":false,"dataSource":"ECHO","naics":"336611","sector":"Transportation Equip","hasNei2023":true},{"id":"110041031594","triId":"39581FRDGL600LO","camdId":null,"eisId":"6251411","name":"BOLLINGER MISSISSIPPI REPAIR, LLC","address":"601 BAYOU CASOTTE PARKWAY","city":"PASCAGOULA","state":"MS","zip":"39581","lat":30.342783,"lon":-88.5139,"permitType":"Major","isMajor":true,"hasHpv":false,"dataSource":"ECHO","naics":"333132 336611","sector":"Other","hasNei2023":true},{"id":"110064135056","triId":"39581HLTRM5110W","camdId":null,"eisId":"6969711","name":"BOLLINGER MISSISSIPPI SHIPBUILDING, LLC","address":"900 BAYOU CASOTTE PARKWAY","city":"PASCAGOULA","state":"MS","zip":"39568","lat":30.34722,"lon":-88.51331,"permitType":"Major","isMajor":true,"hasHpv":false,"dataSource":"ECHO","naics":"336611","sector":"Transportation Equip","triYears":["2024","2023","2022","2021","2020","2019","2018","2017","2016","2011","2008"],"hasNei2023":true},{"id":"110008510496","triId":"38965CLTNDHIGHW","camdId":null,"eisId":"6313611","name":"BORGWARNER EMISSIONS SYSTEMS INC, BORG WARNER AUTOMOTIVE","address":"600 HIGHWAY 32 EAST","city":"WATER VALLEY","state":"MS","zip":"38965","lat":34.130611,"lon":-89.638639,"permitType":"Federally Reportable Minor","isMajor":false,"hasHpv":false,"dataSource":"ECHO","naics":"336312 336350","sector":"Transportation Equip","triYears":["2024","2023","2022","2021","2020","2019","2018","2017","2016"],"hasNei2023":false},{"id":"110000375692","triId":"38654THMPS10136","camdId":null,"eisId":"6933311","name":"BPI COATINGS SOLUTIONS LLC","address":"10136 MAGNOLIA DRIVE","city":"OLIVE BRANCH","state":"MS","zip":"38654","lat":34.951111,"lon":-89.8075,"permitType":"Federally Reportable Minor","isMajor":false,"hasHpv":false,"dataSource":"ECHO","naics":"325510","sector":"Chemical","triYears":["2022","2021","2020","2019"],"hasNei2023":false},{"id":"110024888718","triId":null,"camdId":null,"eisId":null,"name":"BREELAND FUNERAL HOME OF CANTON MS INC","address":"3304 SOUTH LIBERTY STREET","city":"CANTON","state":"MS","zip":"39046","lat":32.610511,"lon":-90.03491,"permitType":"Federally Reportable Minor","isMajor":false,"hasHpv":false,"dataSource":"ECHO","naics":"999999","sector":"Other","hasNei2023":false},{"id":"110000375638","triId":"38654KLLYM10745","camdId":null,"eisId":"7184411","name":"BRINKMANN CORPORATION, THE","address":"10745 MARINA DRIVE","city":"OLIVE BRANCH","state":"MS","zip":"38654","lat":34.9881,"lon":-89.79949,"permitType":"Federally Reportable Minor","isMajor":false,"hasHpv":false,"dataSource":"ECHO","naics":"321920 332999","sector":"Wood Products","hasNei2023":false},{"id":"110071348097","triId":null,"camdId":null,"eisId":"21970311","name":"BROOKHAVEN PELLETS LLC","address":"912 WL BEHAN ROAD","city":"BROOKHAVEN","state":"MS","zip":"39601","lat":31.592222,"lon":-90.433889,"permitType":"Major","isMajor":true,"hasHpv":false,"dataSource":"ECHO","naics":"321999","sector":"Wood Products","hasNei2023":true},{"id":"110001977157","triId":null,"camdId":null,"eisId":null,"name":"BUCK SULLIVAN INC","address":"1022 TERRY ROAD","city":"JACKSON","state":"MS","zip":"39204","lat":32.29247,"lon":-90.20097,"permitType":"Federally Reportable Minor","isMajor":false,"hasHpv":false,"dataSource":"ECHO","naics":"999999","sector":"Other","hasNei2023":false},{"id":"110008511805","triId":null,"camdId":null,"eisId":"7037411","name":"BUNGE CORPORATION, GUNNISON","address":"HIGHWAY 1","city":"GUNNISON","state":"MS","zip":"38746","lat":34.014472,"lon":-90.94175,"permitType":"Federally Reportable Minor","isMajor":false,"hasHpv":false,"dataSource":"ECHO","naics":"999999","sector":"Other","hasNei2023":false},{"id":"110007109422","triId":null,"camdId":null,"eisId":null,"name":"BUNGE CORPORATION, NATCHEZ","address":"TERMINAL ROAD","city":"NATCHEZ","state":"MS","zip":"39120","lat":31.5087145,"lon":-91.3572934,"permitType":"Federally Reportable Minor","isMajor":false,"hasHpv":false,"dataSource":"ECHO","naics":"999999","sector":"Other","hasNei2023":false},{"id":"110008509952","triId":null,"camdId":null,"eisId":"6285811","name":"BUNGE NORTH AMERICA INC, VICKSBURG, LEVEE AND DEPOT STREET","address":"LEVEE AND DEPOT STREET","city":"VICKSBURG","state":"MS","zip":"39180","lat":32.347472,"lon":-90.886083,"permitType":"Federally Reportable Minor","isMajor":false,"hasHpv":false,"dataSource":"ECHO","naics":"999999","sector":"Other","hasNei2023":false},{"id":"110002220276","triId":"39403CLDWS16EDW","camdId":null,"eisId":"16723411","name":"C L DEWS AND SONS FOUNDRY AND MACHINERY COMPANY INC","address":"1600 EDWARDS STREET","city":"HATTIESBURG","state":"MS","zip":"39401","lat":31.303903,"lon":-89.284739,"permitType":"Synthetic Minor","isMajor":false,"hasHpv":false,"dataSource":"ECHO","naics":"331511","sector":"Other","triYears":["2024","2023","2022","2021","2020","2019","2018","2017","2016"],"hasNei2023":true},{"id":"110022888918","triId":null,"camdId":null,"eisId":null,"name":"CALEDONIA ENERGY PARTNERS LLC, CALEDONIA GAS STORAGE FACILITY","address":"500 FLINT HILL ROAD","city":"CALEDONIA","state":"MS","zip":"39740","lat":33.7,"lon":-88.309742,"permitType":"Synthetic Minor","isMajor":false,"hasHpv":false,"dataSource":"ECHO","naics":"221210","sector":"Other","hasNei2023":false},{"id":"110002214951","triId":"39520CLGNC13121","camdId":null,"eisId":"7492211","name":"CALGON CARBON CORPORATION","address":"13121 WEBRE ROAD","city":"BAY ST. LOUI","state":"MS","zip":"39520","lat":30.220561,"lon":-89.566675,"permitType":"Major","isMajor":true,"hasHpv":false,"dataSource":"ECHO","naics":"325188 325998","sector":"Chemical","triYears":["2024","2023","2022","2021","2020","2018","2017","2016"],"hasNei2023":true},{"id":"110001472013","triId":"39218CLVRT12AZT","camdId":null,"eisId":"7289211","name":"CALVERT COMPANY INC, THE","address":"120 AZTEC DRIVE","city":"RICHLAND","state":"MS","zip":"39218","lat":32.223333,"lon":-90.163067,"permitType":"Synthetic Minor","isMajor":false,"hasHpv":false,"dataSource":"ECHO","naics":"332322","sector":"Metal Fabrication","triYears":["2024","2023","2022","2021","2020","2019","2018","2017","2016"],"hasNei2023":false},{"id":"110000376557","triId":"39180QKRSTPORTO","camdId":null,"eisId":"6285211","name":"CAM2 INTERNATIONAL LLC","address":"685 HAINING ROAD","city":"VICKSBURG","state":"MS","zip":"39183","lat":32.383861,"lon":-90.877944,"permitType":"Federally Reportable Minor","isMajor":false,"hasHpv":false,"dataSource":"ECHO","naics":"324191","sector":"Refinery","hasNei2023":false},{"id":"110007398468","triId":null,"camdId":null,"eisId":null,"name":"CAMP SERVICE & PARTS","address":"328 OAKDALE STREET","city":"JACKSON","state":"MS","zip":"39201","lat":32.28734,"lon":-90.1922,"permitType":"Other","isMajor":false,"hasHpv":false,"dataSource":"ECHO","naics":"999999","sector":"Other","hasNei2023":false},{"id":"110001473030","triId":"39407SRMYCBUILD","camdId":null,"eisId":"7983411","name":"CAMP SHELBY TRAINING SITE","address":"HIGHWAY 49 SOUTH","city":"CAMP SHELBY","state":"MS","zip":"39407","lat":31.189467,"lon":-89.236958,"permitType":"Synthetic Minor","isMajor":false,"hasHpv":false,"dataSource":"ECHO","naics":"928110","sector":"Other","triYears":["2024","2023","2022","2021","2020","2019","2018","2017","2016"],"hasNei2023":true},{"id":"110016792112","triId":null,"camdId":null,"eisId":"7071311","name":"CANTON MUNICIPAL UTILITIES","address":"2096 HIGHWAY 43 NORTH","city":"CANTON","state":"MS","zip":"39046","lat":32.617511,"lon":-90.000561,"permitType":"Major","isMajor":true,"hasHpv":false,"dataSource":"ECHO","naics":"221112","sector":"Power Plant","hasNei2023":true},{"id":"110001977291","triId":null,"camdId":null,"eisId":null,"name":"CAPITAL AUTOMOTIVE SERVICE","address":"880 WEST AMITE STREET","city":"JACKSON (HISTORICAL)","state":"MS","zip":"39203","lat":32.30468,"lon":-90.1974,"permitType":"Other","isMajor":false,"hasHpv":false,"dataSource":"ECHO","naics":"811111","sector":"Other","hasNei2023":false},{"id":"110001977022","triId":null,"camdId":null,"eisId":null,"name":"CAPITAL CAR CARE","address":"108 EAST PASCAGOULA STREET","city":"JACKSON","state":"MS","zip":"39201","lat":32.29814,"lon":-90.18818,"permitType":"Federally Reportable Minor","isMajor":false,"hasHpv":false,"dataSource":"ECHO","naics":"999999","sector":"Other","hasNei2023":false},{"id":"110009416159","triId":null,"camdId":null,"eisId":null,"name":"CAPITOL CITY AUTOMOTIVE SPECIALIST","address":"340 CULBERTSON AVENUE","city":"JACKSON (HISTORICAL)","state":"MS","zip":"39209","lat":32.31508,"lon":-90.22898,"permitType":"Other","isMajor":false,"hasHpv":false,"dataSource":"ECHO","naics":"811111","sector":"Other","hasNei2023":false},{"id":"110024825518","triId":null,"camdId":null,"eisId":null,"name":"CAPITOL CITY CREAMATORY LLC","address":"8961 HIGHWAY 49 NORTH","city":"JACKSON","state":"MS","zip":"39209","lat":32.40209,"lon":-90.27904,"permitType":"Federally Reportable Minor","isMajor":false,"hasHpv":false,"dataSource":"ECHO","naics":"999999","sector":"Other","hasNei2023":false},{"id":"110007109663","triId":null,"camdId":null,"eisId":null,"name":"CAR CARE CLINIC","address":"6564 OLD CANTON RD","city":"RIDGELAND","state":"MS","zip":"00000","lat":32.401585,"lon":-90.108575,"permitType":"Other","isMajor":false,"hasHpv":false,"dataSource":"ECHO","naics":"999999","sector":"Other","hasNei2023":false},{"id":"110001977059","triId":null,"camdId":null,"eisId":null,"name":"CAR CARE CLINIC","address":"105 TRIANGLE DR","city":"JACKSON","state":"MS","zip":"39206","lat":32.35524,"lon":-90.17592,"permitType":"Federally Reportable Minor","isMajor":false,"hasHpv":false,"dataSource":"ECHO","naics":"999999","sector":"Other","hasNei2023":false},{"id":"110007398342","triId":null,"camdId":null,"eisId":null,"name":"CAR CARE CLINIC#1","address":"1709 HWY 80W","city":"BRANDON","state":"MS","zip":"00000","lat":32.283563,"lon":-90.030136,"permitType":"Other","isMajor":false,"hasHpv":false,"dataSource":"ECHO","naics":"999999","sector":"Other","hasNei2023":false},{"id":"110038238760","triId":"3861WCRGLL71HIG","camdId":null,"eisId":null,"name":"CARGILL ANIMAL NUTRITION, NEW FEED MILL","address":"7100 HIGHWAY 178 WEST","city":"BYHALIA","state":"MS","zip":"38611","lat":34.864444,"lon":-89.653611,"permitType":"Federally Reportable Minor","isMajor":false,"hasHpv":false,"dataSource":"ECHO","naics":"311119","sector":"Food Processing","triYears":["2024","2023","2022","2021","2020","2019","2017","2016"],"hasNei2023":false},{"id":"110002107531","triId":"38668CRLSL1201S","camdId":null,"eisId":"6953011","name":"CARLISLE CONSTRUCTION MATERIALS LLC, CARLISLE SYNTEC SYSTEMS, PLANT 9","address":"1201 SCOTT STREET","city":"SENATOBIA","state":"MS","zip":"38668","lat":34.601722,"lon":-89.955667,"permitType":"Synthetic Minor","isMajor":false,"hasHpv":false,"dataSource":"ECHO","naics":"326130","sector":"Plastics/Rubber","triYears":["2022","2021","2020","2019","2018","2017","2016"],"hasNei2023":false},{"id":"110000376156","triId":"38879RCRPNLEEIN","camdId":null,"eisId":"7839111","name":"CARPENTER COMPANY","address":"184 LIPFORD DRIVE","city":"VERONA","state":"MS","zip":"38879","lat":34.166947,"lon":-88.704456,"permitType":"Major","isMajor":true,"hasHpv":false,"dataSource":"ECHO","naics":"326150","sector":"Plastics/Rubber","triYears":["2024","2023","2022","2021","2020","2019","2018","2017","2016"],"hasNei2023":true},{"id":"110007648563","triId":null,"camdId":null,"eisId":null,"name":"CARRIER PROCESS EQUIPMENT GROUP INC","address":"4526 NORTH REED ROAD","city":"MATHISTON","state":"MS","zip":"39752","lat":33.5275,"lon":-89.148056,"permitType":"Synthetic Minor","isMajor":false,"hasHpv":false,"dataSource":"ECHO","naics":"333415","sector":"Other","hasNei2023":false},{"id":"110044419368","triId":null,"camdId":null,"eisId":null,"name":"CARY GINNERY INC","address":"140 DOGWOOD STREET","city":"CARY","state":"MS","zip":"39054","lat":32.7985492,"lon":-90.9352526,"permitType":"Federally Reportable Minor","isMajor":false,"hasHpv":false,"dataSource":"ECHO","naics":"115111","sector":"Other","hasNei2023":false},{"id":"110000376003","triId":"38834CTRPL202CA","camdId":null,"eisId":"7355811","name":"CATERPILLAR INC","address":"501 CARDINAL DRIVE","city":"CORINTH","state":"MS","zip":"38834","lat":34.915014,"lon":-88.529744,"permitType":"Major","isMajor":true,"hasHpv":false,"dataSource":"ECHO","naics":"333618","sector":"Other","triYears":["2024","2023","2022","2021","2020","2019","2018","2017","2016"],"hasNei2023":true},{"id":"110000493243","triId":"38829CTRPL100CA","camdId":null,"eisId":"7277211","name":"CATERPILLAR INC, CATERPILLAR REMANUFACTURED COMPONENTS GROUP","address":"100 CATERPILLAR DRIVE","city":"BOONEVILLE","state":"MS","zip":"38829","lat":34.68175,"lon":-88.528944,"permitType":"Synthetic Minor","isMajor":false,"hasHpv":false,"dataSource":"ECHO","naics":"336399","sector":"Transportation Equip","triYears":["2024","2023","2022","2021","2020"],"hasNei2023":false},{"id":"110002225565","triId":null,"camdId":null,"eisId":null,"name":"CCSL BILOXI LLC, DBA GULF COAST LAUNDRY SERVICES","address":"12071 SEAWAY ROAD","city":"GULFPORT","state":"MS","zip":"39503","lat":30.43443,"lon":-89.03774,"permitType":"Federally Reportable Minor","isMajor":false,"hasHpv":false,"dataSource":"ECHO","naics":"812332","sector":"Other","hasNei2023":false},{"id":"110002324191","triId":"39074CNTRL11634","camdId":null,"eisId":"7837511","name":"CENTRAL INDUSTRIES INC, DBA RIVER VALLEY INGREDIENTS","address":"11634 HIGHWAY 80 WEST","city":"FOREST","state":"MS","zip":"39074","lat":32.362972,"lon":-89.539806,"permitType":"Synthetic Minor","isMajor":false,"hasHpv":false,"dataSource":"ECHO","naics":"311119","sector":"Food Processing","triYears":["2024","2023","2022","2021","2020","2019","2018","2017","2016"],"hasNei2023":true},{"id":"110001473496","triId":null,"camdId":null,"eisId":"6801711","name":"CENTRAL MISSISSIPPI MEDICAL CENTER","address":"1850 CHADWICK DRIVE","city":"JACKSON","state":"MS","zip":"39204","lat":32.2869,"lon":-90.25566,"permitType":"Federally Reportable Minor","isMajor":false,"hasHpv":false,"dataSource":"ECHO","naics":"622110","sector":"Other","hasNei2023":false},{"id":"110010345153","triId":null,"camdId":null,"eisId":null,"name":"CERTIFIED AUTOMOTIVE","address":"350 HIGHWAY 51","city":"MISSISSIPPI","state":"MS","zip":"39157","lat":32.41838,"lon":-90.135844,"permitType":"Other","isMajor":false,"hasHpv":false,"dataSource":"ECHO","naics":"999999","sector":"Other","hasNei2023":false},{"id":"110000741485","triId":"39194MSSSSHIGHW","camdId":null,"eisId":"8384811","name":"CF INDUSTRIES NITROGEN LLC","address":"4608 HIGHWAY 49 EAST","city":"YAZOO CITY","state":"MS","zip":"39194","lat":32.904606,"lon":-90.383153,"permitType":"Major","isMajor":true,"hasHpv":false,"dataSource":"ECHO","naics":"325311","sector":"Chemical","triYears":["2024","2023","2022","2021","2020","2019","2018","2017","2016"],"hasNei2023":true},{"id":"110038353171","triId":null,"camdId":null,"eisId":null,"name":"CF RAIL SERVICES LLC, MISSISSIPPI RAILCAR","address":"4115 HIGHWAY 19 SOUTH","city":"MERIDIAN","state":"MS","zip":"39301","lat":32.290833,"lon":-88.498472,"permitType":"Synthetic Minor","isMajor":false,"hasHpv":false,"dataSource":"ECHO","naics":"999999","sector":"Other","hasNei2023":false},{"id":"110002203758","triId":null,"camdId":null,"eisId":null,"name":"CFC TRANSPORTATION INC","address":"2601 CLEDA DRIVE","city":"COLUMBUS","state":"MS","zip":"39705","lat":33.51915,"lon":-88.40235,"permitType":"Federally Reportable Minor","isMajor":false,"hasHpv":false,"dataSource":"ECHO","naics":"999999","sector":"Other","hasNei2023":false},{"id":"110002225976","triId":null,"camdId":null,"eisId":"7290811","name":"CHAMBERS CLEARVIEW ENVIRONMENTAL LANDFILL INC","address":"2253 MUDLINE ROAD","city":"LAKE","state":"MS","zip":"390929406","lat":32.226346,"lon":-89.372269,"permitType":"Major","isMajor":true,"hasHpv":false,"dataSource":"ECHO","naics":"562212","sector":"Waste Management","hasNei2023":true},{"id":"110012305969","triId":null,"camdId":null,"eisId":null,"name":"CHANCELLOR FUNERAL HOME LLC","address":"2576 HIGHWAY 49 SOUTH","city":"FLORENCE","state":"MS","zip":"39073","lat":32.16972,"lon":-90.13139,"permitType":"Federally Reportable Minor","isMajor":false,"hasHpv":false,"dataSource":"ECHO","naics":"812210","sector":"Other","hasNei2023":false},{"id":"110005985416","triId":"39571DPNTD7685K","camdId":null,"eisId":null,"name":"CHEMOURS COMPANY FC LLC THE, DELISLE PLANT","address":"7685 KILN DELISLE ROAD","city":"PASS CHRISTI","state":"MS","zip":"39571","lat":30.389186,"lon":-89.308892,"permitType":"Major","isMajor":true,"hasHpv":false,"dataSource":"ECHO","naics":"325131","sector":"Chemical","triYears":["2024","2023","2022","2021","2020","2019","2018","2017","2016","2014"],"hasNei2023":false},{"id":"110002213097","triId":null,"camdId":null,"eisId":null,"name":"CHERRYBARK FLOORING INC","address":"3153 COUNTY FARM ROAD","city":"HAZLEHURST","state":"MS","zip":"39083","lat":31.84013,"lon":-90.41012,"permitType":"Federally Reportable Minor","isMajor":false,"hasHpv":false,"dataSource":"ECHO","naics":"999999","sector":"Other","hasNei2023":false},{"id":"110000377477","triId":"39567CHVRNPOBOX","camdId":null,"eisId":"8384311","name":"CHEVRON USA INC, CHEVRON PRODUCTS COMPANY, PASCAGOULA REFINERY","address":"250 INDUSTRIAL ROAD","city":"PASCAGOULA","state":"MS","zip":"39581","lat":30.343733,"lon":-88.4938,"permitType":"Major","isMajor":true,"hasHpv":false,"dataSource":"ECHO","naics":"324110","sector":"Refinery","triYears":["2024","2023","2022","2021","2020","2019","2018","2017","2016"],"hasNei2023":true},{"id":"110007645842","triId":"3942WCHVRN15SUT","camdId":null,"eisId":"7183311","name":"CHEVRON USA, INC, DBA CHEVRON PRODUCTS COMPANY, COLLINS TERMINAL","address":"1500 SOUTH FIR AVENUE","city":"COLLINS","state":"MS","zip":"39428","lat":31.631504,"lon":-89.542907,"permitType":"Synthetic Minor","isMajor":false,"hasHpv":false,"dataSource":"ECHO","naics":"424710","sector":"Other","hasNei2023":false},{"id":"110002306914","triId":null,"camdId":null,"eisId":"6284411","name":"CHISOS PIPELINE COMPANY LLC,  DEXTER COMPRESSOR STATION","address":"182 VINCETOWN ROAD","city":"SANDY HOOK","state":"MS","zip":"39478","lat":31.048722,"lon":-89.931333,"permitType":"Federally Reportable Minor","isMajor":false,"hasHpv":false,"dataSource":"ECHO","naics":"221210","sector":"Other","hasNei2023":false},{"id":"110002210875","triId":null,"camdId":null,"eisId":null,"name":"CHOCTAW COUNTY HOSPITAL","address":"148 WEST CHERRY STREET","city":"ACKERMAN","state":"MS","zip":"39735","lat":33.312234,"lon":-89.174165,"permitType":"Federally Reportable Minor","isMajor":false,"hasHpv":false,"dataSource":"ECHO","naics":"999999","sector":"Other","hasNei2023":false},{"id":"110021170908","triId":"39735TRCTBRTE1B","camdId":"55076","eisId":"7053011","name":"CHOCTAW GENERATION LIMITED PARTNERSHIP, RED HILLS GENERATION FACILITY","address":"2391 PENSACOLA ROAD","city":"ACKERMAN","state":"MS","zip":"39735","lat":33.37648,"lon":-89.21783,"permitType":"Major","isMajor":true,"hasHpv":false,"dataSource":"ECHO","naics":"221112","sector":"Power Plant","triYears":["2024","2023","2022","2021","2020","2019","2018","2017","2016"],"hasNei2023":true},{"id":"110002210848","triId":null,"camdId":null,"eisId":null,"name":"CINTAS CORPORATION NUMBER 2","address":"240 WEST MITCHELL AVENUE","city":"JACKSON","state":"MS","zip":"39213","lat":32.335376,"lon":-90.181234,"permitType":"Federally Reportable Minor","isMajor":false,"hasHpv":false,"dataSource":"ECHO","naics":"812332","sector":"Other","hasNei2023":false},{"id":"110001472399","triId":null,"camdId":null,"eisId":"7154811","name":"CITGO PETROLEUM CORPORATION, MERIDIAN TERMINAL","address":"180 65TH WEST AVENUE","city":"MERIDIAN","state":"MS","zip":"39307","lat":32.354666,"lon":-88.74309,"permitType":"Synthetic Minor","isMajor":false,"hasHpv":false,"dataSource":"ECHO","naics":"424710","sector":"Other","hasNei2023":false},{"id":"110002226323","triId":"38769CVSSTPOBOX","camdId":null,"eisId":"7051311","name":"CIVES STEEL COMPANY","address":"219 RUSSELL CRUTCHER ROAD","city":"ROSEDALE","state":"MS","zip":"38769","lat":33.828389,"lon":-91.022306,"permitType":"Federally Reportable Minor","isMajor":false,"hasHpv":false,"dataSource":"ECHO","naics":"999999","sector":"Other","triYears":["2024","2023","2022","2021","2020","2019","2018","2017","2016"],"hasNei2023":false},{"id":"110013395003","triId":null,"camdId":"55395","eisId":null,"name":"CLARKSDALE PUBLIC UTILITIES, CROSSROADS ENERGY CENTER","address":"19TH AND WEST TALLAHATCHIE STREET","city":"CLARKSDALE","state":"MS","zip":"38614","lat":34.183333,"lon":-90.563,"permitType":"Major","isMajor":true,"hasHpv":false,"dataSource":"ECHO","naics":"221112","sector":"Power Plant","hasNei2023":false},{"id":"110002079562","triId":null,"camdId":"2059","eisId":null,"name":"CLARKSDALE PUBLIC UTILITIES, LEWIS L WILKINS GENERATING STATION","address":"240 HICKS STREET","city":"CLARKSDALE","state":"MS","zip":"38614","lat":34.183722,"lon":-90.563139,"permitType":"Major","isMajor":true,"hasHpv":false,"dataSource":"ECHO","naics":"999999","sector":"Power Plant","hasNei2023":false},{"id":"110001472665","triId":"38847CWCST230IN","camdId":null,"eisId":null,"name":"CLEVELAND SALES INC, DBA CPW TRAILER","address":"230 INDUSTRIAL PARK ROAD","city":"GOLDEN","state":"MS","zip":"38847","lat":34.38157,"lon":-88.30724,"permitType":"Synthetic Minor","isMajor":false,"hasHpv":false,"dataSource":"ECHO","naics":"336212","sector":"Transportation Equip","hasNei2023":false},{"id":"110001977246","triId":null,"camdId":null,"eisId":null,"name":"CNG DOWNTOWN BP","address":"2500 8TH STREET","city":"MERIDIAN","state":"MS","zip":"39301","lat":32.36507,"lon":-88.70393,"permitType":"Other","isMajor":false,"hasHpv":false,"dataSource":"ECHO","naics":"999999","sector":"Other","hasNei2023":false},{"id":"110063232764","triId":null,"camdId":null,"eisId":null,"name":"COAST COCA COLA","address":"NOT GIVEN","city":"MISSISSIPPI","state":"MS","zip":"00000","lat":30.39381,"lon":-89.09324,"permitType":"Other","isMajor":false,"hasHpv":false,"dataSource":"ECHO","naics":"999999","sector":"Other","hasNei2023":false},{"id":"110063231621","triId":null,"camdId":null,"eisId":null,"name":"COASTAL FORD","address":"NOT GIVEN","city":"MISSISSIPPI","state":"MS","zip":"00000","lat":32.6864655,"lon":-89.6561493,"permitType":"Other","isMajor":false,"hasHpv":false,"dataSource":"ECHO","naics":"999999","sector":"Other","hasNei2023":false},{"id":"110042261995","triId":null,"camdId":null,"eisId":null,"name":"COBLER CREMATION SERVICES, LLC","address":"6487 CRICKET ROAD","city":"MERIDIAN","state":"MS","zip":"39305","lat":32.4296,"lon":-88.78743,"permitType":"Federally Reportable Minor","isMajor":false,"hasHpv":false,"dataSource":"ECHO","naics":"812220","sector":"Other","hasNei2023":false},{"id":"110001977200","triId":null,"camdId":null,"eisId":null,"name":"COLLEGE PARK AUTO & QUICK LUBE","address":"815 53RD AVENUE","city":"MERIDIAN","state":"MS","zip":"39307","lat":32.36489,"lon":-88.73169,"permitType":"Other","isMajor":false,"hasHpv":false,"dataSource":"ECHO","naics":"811111","sector":"Other","hasNei2023":false},{"id":"110002227171","triId":null,"camdId":null,"eisId":null,"name":"COLONIAL CLEANERS","address":"NOT GIVEN","city":"MISSISSIPPI","state":"MS","zip":"00000","lat":34.19848,"lon":-88.72003,"permitType":"Other","isMajor":false,"hasHpv":false,"dataSource":"ECHO","naics":"999999","sector":"Other","hasNei2023":false},{"id":"110064134066","triId":null,"camdId":null,"eisId":null,"name":"COLONIAL PIPELINE COMPANY, COLLINS COMPLEX","address":"35 PUMP STATION ROAD","city":"COLLINS","state":"MS","zip":"39428","lat":31.641308,"lon":-89.51595,"permitType":"Major","isMajor":true,"hasHpv":false,"dataSource":"ECHO","naics":"486910","sector":"Pipeline/Compressor","hasNei2023":false},{"id":"110064134048","triId":null,"camdId":null,"eisId":null,"name":"COLONIAL PIPELINE COMPANY, KOLA STATION","address":"PUMP STATION ROAD","city":"COLLINS","state":"MS","zip":"39428","lat":31.642631,"lon":-89.509188,"permitType":"Federally Reportable Minor","isMajor":false,"hasHpv":false,"dataSource":"ECHO","naics":"999999","sector":"Other","hasNei2023":false},{"id":"110000799486","triId":null,"camdId":null,"eisId":"6316811","name":"COLUMBIA GULF TRANSMISSION LLC, CORINTH COMPRESSOR STATION","address":"3659 COUNTY ROAD 100","city":"CORINTH","state":"MS","zip":"38834","lat":34.959333,"lon":-88.421139,"permitType":"Major","isMajor":true,"hasHpv":false,"dataSource":"ECHO","naics":"486210","sector":"Pipeline/Compressor","hasNei2023":true},{"id":"110070063701","triId":null,"camdId":null,"eisId":"18991711","name":"COLUMBIA GULF TRANSMISSION LLC, HOLCOMB COMPRESSOR STATION","address":"OLD MISSISSIPPI 7","city":"HOLCOMB","state":"MS","zip":"38940","lat":33.726789,"lon":-90.0479,"permitType":"Major","isMajor":true,"hasHpv":false,"dataSource":"ECHO","naics":"486210","sector":"Pipeline/Compressor","hasNei2023":true},{"id":"110008508800","triId":null,"camdId":null,"eisId":"6967911","name":"COLUMBIA GULF TRANSMISSION LLC, INVERNESS COMPRESSOR STATION","address":"4161 FOUR MILE ROAD","city":"INVERNESS","state":"MS","zip":"38753","lat":33.35852,"lon":-90.573071,"permitType":"Major","isMajor":true,"hasHpv":false,"dataSource":"ECHO","naics":"486210","sector":"Pipeline/Compressor","hasNei2023":true},{"id":"110070063702","triId":null,"camdId":null,"eisId":"19437011","name":"COLUMBIA GULF TRANSMISSION LLC, NEW ALBANY COMPRESSOR STATION","address":"PLEASANT HILL ROAD","city":"NEW ALBANY","state":"MS","zip":"38652","lat":34.529833,"lon":-88.95325,"permitType":"Major","isMajor":true,"hasHpv":false,"dataSource":"ECHO","naics":"486210","sector":"Pipeline/Compressor","hasNei2023":true},{"id":"110001976782","triId":null,"camdId":null,"eisId":"7051611","name":"COLUMBIA GULF TRANSMISSION, BANNER COMPRESSOR STATION","address":"82 COUNTY ROAD 233","city":"WATER VALLEY","state":"MS","zip":"389659106","lat":34.08551,"lon":-89.44656,"permitType":"Major","isMajor":true,"hasHpv":false,"dataSource":"ECHO","naics":"486210","sector":"Pipeline/Compressor","hasNei2023":true},{"id":"110060260541","triId":"3882WCMFRT9INDU","camdId":null,"eisId":null,"name":"COMFORT REVOLUTION","address":"9 INDUSTRIAL ROAD","city":"BELMONT","state":"MS","zip":"38827","lat":34.488415,"lon":-88.205737,"permitType":"Federally Reportable Minor","isMajor":false,"hasHpv":false,"dataSource":"ECHO","naics":"326150","sector":"Plastics/Rubber","triYears":["2024","2023","2022","2021","2020","2019","2018","2017","2016"],"hasNei2023":false},{"id":"110001977521","triId":null,"camdId":null,"eisId":null,"name":"COMMERCE CLEANERS","address":"2426 MILITARY ROAD","city":"COLUMBUS","state":"MS","zip":"39701","lat":33.524178,"lon":-88.402931,"permitType":"Federally Reportable Minor","isMajor":false,"hasHpv":false,"dataSource":"ECHO","naics":"999999","sector":"Other","hasNei2023":false},{"id":"110007109743","triId":null,"camdId":null,"eisId":null,"name":"COMMUNITY HOSPITAL OF CALHOUN COUNTY","address":"HIGHWAY 9 NORTH","city":"PITTSBORO","state":"MS","zip":"38951","lat":33.9737829,"lon":-89.2904897,"permitType":"Federally Reportable Minor","isMajor":false,"hasHpv":false,"dataSource":"ECHO","naics":"999999","sector":"Other","hasNei2023":false},{"id":"110002225716","triId":null,"camdId":null,"eisId":"7062911","name":"CONFORTAIRE INC","address":"2133 SOUTH VETERANS BOULEVARD","city":"TUPELO","state":"MS","zip":"38804","lat":34.227222,"lon":-88.687511,"permitType":"Synthetic Minor","isMajor":false,"hasHpv":false,"dataSource":"ECHO","naics":"326299","sector":"Plastics/Rubber","hasNei2023":false},{"id":"110012602406","triId":null,"camdId":null,"eisId":null,"name":"CONSOLIDATED GRAIN AND BARGE-MAYERSVILLE","address":"1500 RIVER GRAIN ROAD","city":"MAYERSVILLE","state":"MS","zip":"39113","lat":32.917,"lon":-91.05875,"permitType":"Federally Reportable Minor","isMajor":false,"hasHpv":false,"dataSource":"ECHO","naics":"999999","sector":"Other","hasNei2023":false},{"id":"110007109896","triId":null,"camdId":null,"eisId":null,"name":"CONWAY POLE AND PILING INC","address":"HIGHWAY 98 WEST","city":"NEW AUGUSTA","state":"MS","zip":"39462","lat":31.204583,"lon":-89.056778,"permitType":"Federally Reportable Minor","isMajor":false,"hasHpv":false,"dataSource":"ECHO","naics":"999999","sector":"Other","hasNei2023":false},{"id":"110071723043","triId":null,"camdId":null,"eisId":null,"name":"COOPER LIGHTING LLC","address":"5035 HIGHWAY 61 SOUTH","city":"VICKSBURG","state":"MS","zip":"39180","lat":32.248528,"lon":-90.922167,"permitType":"Federally Reportable Minor","isMajor":false,"hasHpv":false,"dataSource":"ECHO","naics":"335122","sector":"Other","hasNei2023":false},{"id":"110002226289","triId":"38614CPRTR2205F","camdId":null,"eisId":null,"name":"COOPER TIRE AND RUBBER COMPANY, CLARKSDALE","address":"2205 MARTIN LUTHER KING JUNIOR DRIVE","city":"CLARKSDALE","state":"MS","zip":"386140131","lat":34.206683,"lon":-90.548625,"permitType":"Federally Reportable Minor","isMajor":false,"hasHpv":false,"dataSource":"ECHO","naics":"326211","sector":"Plastics/Rubber","triYears":["2024","2023","2022","2021","2020","2019","2018","2017","2016"],"hasNei2023":false},{"id":"110002226145","triId":null,"camdId":null,"eisId":"6993011","name":"COOPERATIVE ENERGY, A MISSISSIPPI ELECTRIC COOPERATIVE, BATESVILLE GENERATING ST","address":"200 INDUSTRIAL DRIVE","city":"BATESVILLE","state":"MS","zip":"38606","lat":34.335611,"lon":-89.927444,"permitType":"Major","isMajor":true,"hasHpv":false,"dataSource":"ECHO","naics":"221112","sector":"Power Plant","hasNei2023":true},{"id":"110016950708","triId":null,"camdId":null,"eisId":"7490811","name":"COOPERATIVE ENERGY, A MISSISSIPPI ELECTRIC COOPERATIVE, BENNDALE PEAKING STATION","address":"133 CLARK MIZELLE ROAD","city":"BENNDALE","state":"MS","zip":"39458","lat":30.887064,"lon":-88.805647,"permitType":"Synthetic Minor","isMajor":false,"hasHpv":false,"dataSource":"ECHO","naics":"221112","sector":"Power Plant","hasNei2023":false},{"id":"110008505448","triId":null,"camdId":"2070","eisId":null,"name":"COOPERATIVE ENERGY, A MISSISSIPPI ELECTRIC COOPERATIVE, MOSELLE GENERATING PLANT","address":"308 MOSELLE SEMINARY ROAD","city":"MOSELLE","state":"MS","zip":"39459","lat":31.528583,"lon":-89.30225,"permitType":"Major","isMajor":true,"hasHpv":false,"dataSource":"ECHO","naics":"221112","sector":"Power Plant","hasNei2023":false},{"id":"110000377271","triId":"39475RDMRR304OL","camdId":"6061","eisId":"7154411","name":"COOPERATIVE ENERGY, A MISSISSIPPI ELECTRIC COOPERATIVE, R D MORROW SR GENERATING","address":"304 OLD OKAHOLA SCHOOL ROAD","city":"PURVIS","state":"MS","zip":"39475","lat":31.2178,"lon":-89.3938,"permitType":"Major","isMajor":true,"hasHpv":false,"dataSource":"ECHO","naics":"221112","sector":"Power Plant","triYears":["2018","2017","2016"],"hasNei2023":true},{"id":"110011385571","triId":null,"camdId":"7988","eisId":"9455211","name":"COOPERATIVE ENERGY, A MISSISSIPPI ELECTRIC COOPERATIVE, SILVER CREEK GENERATING","address":"217 MOSES LANE","city":"PRENTISS","state":"MS","zip":"39474","lat":31.599461,"lon":-89.945575,"permitType":"Major","isMajor":true,"hasHpv":false,"dataSource":"ECHO","naics":"221112","sector":"Power Plant","hasNei2023":true},{"id":"110015713450","triId":null,"camdId":"7989","eisId":"7304911","name":"COOPERATIVE ENERGY, A MISSISSIPPI ELECTRIC COOPERATIVE, SYLVARENA GENERATING PLA","address":"3012 SMITH COUNTY ROAD 97","city":"BAY SPRINGS","state":"MS","zip":"39422","lat":31.982444,"lon":-89.410194,"permitType":"Major","isMajor":true,"hasHpv":false,"dataSource":"ECHO","naics":"221112","sector":"Power Plant","hasNei2023":true},{"id":"110001977558","triId":"38651CRDVC735NE","camdId":null,"eisId":null,"name":"CORDOVA CONCRETE","address":"735 NESBIT ROAD","city":"NESBIT","state":"MS","zip":"38651","lat":34.88236,"lon":-90.00472,"permitType":"Federally Reportable Minor","isMajor":false,"hasHpv":false,"dataSource":"ECHO","naics":"327320","sector":"Cement","triYears":["2024"],"hasNei2023":false},{"id":"110010344724","triId":null,"camdId":null,"eisId":null,"name":"COTTAGE CLEANERS","address":"HIGHWAY 309","city":"MISSISSIPPI","state":"MS","zip":"38611","lat":34.8562332,"lon":-89.6760197,"permitType":"Other","isMajor":false,"hasHpv":false,"dataSource":"ECHO","naics":"332710","sector":"Metal Fabrication","hasNei2023":false},{"id":"110000375601","triId":"38639DLTLM100MI","camdId":null,"eisId":"7166811","name":"COTTONSEED CO-OP CORPORATION","address":"100 MILL STREET","city":"JONESTOWN","state":"MS","zip":"38639","lat":34.322436,"lon":-90.460753,"permitType":"Federally Reportable Minor","isMajor":false,"hasHpv":false,"dataSource":"ECHO","naics":"311223","sector":"Food Processing","triYears":["2023","2022","2021","2020","2019","2018","2017"],"hasNei2023":true},{"id":"110002215610","triId":null,"camdId":null,"eisId":null,"name":"COVINGTON COUNTY HOSPITAL","address":"701 SOUTH HOLLY AVENUE","city":"COLLINS","state":"MS","zip":"39428","lat":31.63824,"lon":-89.55442,"permitType":"Federally Reportable Minor","isMajor":false,"hasHpv":false,"dataSource":"ECHO","naics":"999999","sector":"Other","hasNei2023":false},{"id":"110000900277","triId":"3946WCPPLL1912R","camdId":null,"eisId":null,"name":"CPP LLC","address":"1900 ROSA STREET","city":"PICAYUNE","state":"MS","zip":"39466","lat":30.521735,"lon":-89.70055,"permitType":"Federally Reportable Minor","isMajor":false,"hasHpv":false,"dataSource":"ECHO","naics":"321114","sector":"Wood Products","triYears":["2024","2023","2022","2021","2020","2019","2018","2017","2016"],"hasNei2023":false},{"id":"110043284237","triId":null,"camdId":null,"eisId":null,"name":"CRESCENT SALES","address":"4975 WEST MAIN STREET","city":"TUPELO","state":"MS","zip":"38801","lat":34.244422,"lon":-88.788454,"permitType":"Federally Reportable Minor","isMajor":false,"hasHpv":false,"dataSource":"ECHO","naics":"999999","sector":"Other","hasNei2023":false},{"id":"110023012489","triId":null,"camdId":null,"eisId":null,"name":"CREST FOAM","address":"600 3RD AVENUE","city":"HOUSTON","state":"MS","zip":"38851","lat":33.908228,"lon":-89.010576,"permitType":"Federally Reportable Minor","isMajor":false,"hasHpv":false,"dataSource":"ECHO","naics":"326140","sector":"Plastics/Rubber","hasNei2023":false},{"id":"110071722997","triId":null,"camdId":null,"eisId":null,"name":"CROFT LLC","address":"1080 HIGHWAY 51 NORTH","city":"MAGNOLIA","state":"MS","zip":"39652","lat":31.172525,"lon":-90.450006,"permitType":"Federally Reportable Minor","isMajor":false,"hasHpv":false,"dataSource":"ECHO","naics":"332321","sector":"Metal Fabrication","hasNei2023":false},{"id":"110002226181","triId":"38668LMNMX140MA","camdId":null,"eisId":"6952911","name":"CRYSTAL FINISHING SYSTEMS INC","address":"140 MATTHEWS DRIVE","city":"SENATOBIA","state":"MS","zip":"38668","lat":34.612778,"lon":-89.989744,"permitType":"Synthetic Minor","isMajor":false,"hasHpv":false,"dataSource":"ECHO","naics":"331316","sector":"Other","triYears":["2021","2020","2019","2018"],"hasNei2023":false},{"id":"110037600744","triId":null,"camdId":null,"eisId":"15336211","name":"CUSHIONS TO GO LLC","address":"370 HENRY SOUTHERN DRIVE","city":"PONTOTOC","state":"MS","zip":"38863","lat":34.278722,"lon":-89.019306,"permitType":"Synthetic Minor","isMajor":false,"hasHpv":false,"dataSource":"ECHO","naics":"326150","sector":"Plastics/Rubber","hasNei2023":false},{"id":"110028258427","triId":null,"camdId":null,"eisId":null,"name":"CUSTOM ABRASIVES","address":"216B DAN STUART ROAD","city":"PICAYUNE","state":"MS","zip":"39466","lat":30.5347204,"lon":-89.6179885,"permitType":"Federally Reportable Minor","isMajor":false,"hasHpv":false,"dataSource":"ECHO","naics":"212322","sector":"Other","hasNei2023":false},{"id":"110001472629","triId":"39272GRFFN1299P","camdId":null,"eisId":"6801511","name":"DARLING INGREDIENTS INC","address":"1299 PRISOCK ROAD","city":"JACKSON","state":"MS","zip":"39272","lat":32.159139,"lon":-90.256556,"permitType":"Major","isMajor":true,"hasHpv":false,"dataSource":"ECHO","naics":"311613","sector":"Food Processing","triYears":["2024","2023","2022","2021","2020","2019","2018","2017","2016"],"hasNei2023":true},{"id":"110002227741","triId":null,"camdId":null,"eisId":"7054611","name":"DART CONTAINER COMPANY OF MISSISSIPPI LLC","address":"197 HARRIS AVENUE","city":"QUITMAN","state":"MS","zip":"39355","lat":32.043056,"lon":-88.733056,"permitType":"Major","isMajor":true,"hasHpv":false,"dataSource":"ECHO","naics":"326140","sector":"Plastics/Rubber","hasNei2023":true},{"id":"110001473174","triId":null,"camdId":null,"eisId":null,"name":"DAVIS AUTO REPAIR","address":"125 EAST RANKIN STREET","city":"JACKSON","state":"MS","zip":"39201","lat":32.28634,"lon":-90.18711,"permitType":"Federally Reportable Minor","isMajor":false,"hasHpv":false,"dataSource":"ECHO","naics":"999999","sector":"Other","hasNei2023":false},{"id":"110007109672","triId":null,"camdId":null,"eisId":null,"name":"DAVIS TIRE & AUTO CENTER","address":"5758 TERRY RD","city":"JACKSON (HISTORICAL)","state":"MS","zip":"00000","lat":32.18755,"lon":-90.25918,"permitType":"Other","isMajor":false,"hasHpv":false,"dataSource":"ECHO","naics":"999999","sector":"Other","hasNei2023":false},{"id":"110001976942","triId":null,"camdId":null,"eisId":"6800711","name":"DEDEAUX CLAN FURNITURE FACTORY LLC","address":"11451 CANAL ROAD","city":"GULFPORT","state":"MS","zip":"395037702","lat":30.453617,"lon":-89.136961,"permitType":"Federally Reportable Minor","isMajor":false,"hasHpv":false,"dataSource":"ECHO","naics":"999999","sector":"Other","hasNei2023":false},{"id":"110001977237","triId":null,"camdId":null,"eisId":null,"name":"DEE'S AUTOMOTIVE","address":"5024 POPLAR SPRINGS DRIVE","city":"MERIDIAN","state":"MS","zip":"39305","lat":32.41336,"lon":-88.70271,"permitType":"Other","isMajor":false,"hasHpv":false,"dataSource":"ECHO","naics":"811111","sector":"Other","hasNei2023":false},{"id":"110010344733","triId":null,"camdId":null,"eisId":null,"name":"DEE'S CLEANERS","address":"NOT GIVEN","city":"MISSISSIPPI","state":"MS","zip":"00000","lat":34.61835,"lon":-89.96666,"permitType":"Other","isMajor":false,"hasHpv":false,"dataSource":"ECHO","naics":"999999","sector":"Other","hasNei2023":false},{"id":"110071722732","triId":null,"camdId":null,"eisId":null,"name":"DEEPROCK DISPOSAL SERVICES, LLC, WAYNESBORO","address":"6739 HIGHWAY 184 WEST","city":"WAYNESBORO","state":"MS","zip":"39367","lat":31.511306,"lon":-88.670083,"permitType":"Federally Reportable Minor","isMajor":false,"hasHpv":false,"dataSource":"ECHO","naics":"321113","sector":"Wood Products","hasNei2023":false},{"id":"110070550772","triId":"3865WJNSBF823HI","camdId":null,"eisId":"15438611","name":"DELEK RENEWABLES LLC","address":"823 HIGHWAY 15 NORTH","city":"NEW ALBANY","state":"MS","zip":"38652","lat":34.531027,"lon":-88.990976,"permitType":"Synthetic Minor","isMajor":false,"hasHpv":false,"dataSource":"ECHO","naics":"325110","sector":"Chemical","triYears":["2024","2023","2022","2021","2020","2019","2018"],"hasNei2023":false},{"id":"110008514358","triId":null,"camdId":null,"eisId":"7070611","name":"DELTA INDUSTRIES, INC., COLUMBUS PLANT 73","address":"4061HIGHWAY 50 EAST","city":"COLUMBUS","state":"MS","zip":"39702","lat":33.522,"lon":-88.342028,"permitType":"Federally Reportable Minor","isMajor":false,"hasHpv":false,"dataSource":"ECHO","naics":"327320","sector":"Cement","hasNei2023":false},{"id":"110002206648","triId":null,"camdId":null,"eisId":null,"name":"DELTA INDUSTRIES, INC., LAUREL PLANT 82","address":"2539 SANDERSON DRIVE","city":"LAUREL","state":"MS","zip":"39442","lat":31.6675,"lon":-89.162889,"permitType":"Other","isMajor":false,"hasHpv":false,"dataSource":"ECHO","naics":"327320","sector":"Cement","hasNei2023":false},{"id":"110030764849","triId":null,"camdId":null,"eisId":null,"name":"DELTA INDUSTRIES, INC., MOSS POINT PLANT 36","address":"8207 OLD STAGE ROAD","city":"MOSS POINT","state":"MS","zip":"39562","lat":30.415861,"lon":-88.470444,"permitType":"Other","isMajor":false,"hasHpv":false,"dataSource":"ECHO","naics":"327320","sector":"Cement","hasNei2023":false},{"id":"110007109280","triId":null,"camdId":null,"eisId":"7084711","name":"DELTA TERMINAL INC","address":"2081 REAR HARBOR FRONT ROAD","city":"GREENVILLE","state":"MS","zip":"38701","lat":33.369722,"lon":-91.097361,"permitType":"Major","isMajor":true,"hasHpv":false,"dataSource":"ECHO","naics":"424710","sector":"Other","hasNei2023":true},{"id":"110008506580","triId":null,"camdId":null,"eisId":null,"name":"DENBURY MANAGEMENT INC","address":"FRONTAGE ROAD NORTH  INTERSTATE 20","city":"BOLTON","state":"MS","zip":"39041","lat":32.36065,"lon":-90.46035,"permitType":"Federally Reportable Minor","isMajor":false,"hasHpv":false,"dataSource":"ECHO","naics":"999999","sector":"Other","hasNei2023":false},{"id":"110007109486","triId":null,"camdId":null,"eisId":null,"name":"DENBURY MANAGEMENT INC, LAKE UTOPIA CENTRAL BATTERY","address":"HIGHWAY 15","city":"VOSSBURG","state":"MS","zip":"39366","lat":31.9411086,"lon":-88.9002163,"permitType":"Federally Reportable Minor","isMajor":false,"hasHpv":false,"dataSource":"ECHO","naics":"999999","sector":"Other","hasNei2023":false},{"id":"110071722697","triId":null,"camdId":null,"eisId":null,"name":"DENBURY ONSHORE LLC","address":"HIGHWAY 511","city":"QUITMAN","state":"MS","zip":"39355","lat":32.035209,"lon":-88.64141,"permitType":"Federally Reportable Minor","isMajor":false,"hasHpv":false,"dataSource":"ECHO","naics":"999999","sector":"Other","hasNei2023":false},{"id":"110022889098","triId":null,"camdId":null,"eisId":"16438811","name":"DENBURY ONSHORE LLC, BROOKHAVEN CENTRAL PROCESSING FACILITY","address":"1030 CALIFORNIA ROAD","city":"BROOKHAVEN","state":"MS","zip":"39601","lat":31.591394,"lon":-90.517231,"permitType":"Synthetic Minor","isMajor":false,"hasHpv":false,"dataSource":"ECHO","naics":"999999","sector":"Other","hasNei2023":false},{"id":"110008512261","triId":null,"camdId":null,"eisId":"16516211","name":"DENBURY ONSHORE LLC, CRANFIELD CENTRAL FACILITY","address":"HIGHWAY 84 WEST","city":"CRANFIELD","state":"MS","zip":"39661","lat":31.483429,"lon":-91.030231,"permitType":"Synthetic Minor","isMajor":false,"hasHpv":false,"dataSource":"ECHO","naics":"211111 999999","sector":"Oil & Gas","hasNei2023":false},{"id":"110062749012","triId":null,"camdId":null,"eisId":null,"name":"DENBURY ONSHORE LLC, EAST HEIDELBERG MEMBRANE SITE","address":"OFF HIGHWAY 528 TO UNNAMED ROAD","city":"HEIDELBERG","state":"MS","zip":"39439","lat":31.8631282,"lon":-89.0014009,"permitType":"Federally Reportable Minor","isMajor":false,"hasHpv":false,"dataSource":"ECHO","naics":"211111","sector":"Oil & Gas","hasNei2023":false},{"id":"110071723094","triId":null,"camdId":null,"eisId":null,"name":"DENBURY ONSHORE LLC, EUCUTTA EOR FACILITY","address":"31 HESS CAMP DRIVE","city":"SHUBUTA","state":"MS","zip":"39360","lat":31.78154,"lon":-88.82722,"permitType":"Synthetic Minor","isMajor":false,"hasHpv":false,"dataSource":"ECHO","naics":"211111","sector":"Oil & Gas","hasNei2023":false},{"id":"110064340182","triId":null,"camdId":null,"eisId":null,"name":"DENBURY ONSHORE LLC, HEIDELBERG CENTRAL FACILITY","address":"239 COUNTY ROAD 359","city":"HEIDELBERG","state":"MS","zip":"39439","lat":31.87568,"lon":-89.022919,"permitType":"Synthetic Minor","isMajor":false,"hasHpv":false,"dataSource":"ECHO","naics":"999999","sector":"Other","hasNei2023":false},{"id":"110002306905","triId":null,"camdId":null,"eisId":null,"name":"DENBURY ONSHORE LLC, LITTLE CREEK EOR FACILITY","address":"4047 SHELL OIL ROAD","city":"RUTH","state":"MS","zip":"39662","lat":31.34483,"lon":-90.35765,"permitType":"Federally Reportable Minor","isMajor":false,"hasHpv":false,"dataSource":"ECHO","naics":"211111","sector":"Oil & Gas","hasNei2023":false},{"id":"110020568973","triId":null,"camdId":null,"eisId":"12588011","name":"DENBURY ONSHORE LLC, MALLALIEU EOR FACILITY","address":"1043 MOUNT OLIVE ROAD","city":"BOGUE CHITTO","state":"MS","zip":"39629","lat":31.494161,"lon":-90.41114,"permitType":"Federally Reportable Minor","isMajor":false,"hasHpv":false,"dataSource":"ECHO","naics":"211111","sector":"Oil & Gas","hasNei2023":false},{"id":"110024417807","triId":null,"camdId":null,"eisId":null,"name":"DENBURY ONSHORE LLC, MARTINVILLE EOR FACILITY","address":"327 COHO DRIVE","city":"MENDENHALL","state":"MS","zip":"39114","lat":31.999323,"lon":-89.763408,"permitType":"Federally Reportable Minor","isMajor":false,"hasHpv":false,"dataSource":"ECHO","naics":"211111","sector":"Oil & Gas","hasNei2023":false},{"id":"110038526707","triId":null,"camdId":null,"eisId":null,"name":"DENBURY ONSHORE LLC, MARTINVILLE WASHFRED CENTRAL FACILITY","address":"JONES LAYTON ROAD","city":"MENDENHALL","state":"MS","zip":"39114","lat":32.00617,"lon":-89.75622,"permitType":"Federally Reportable Minor","isMajor":false,"hasHpv":false,"dataSource":"ECHO","naics":"999999","sector":"Other","hasNei2023":false},{"id":"110020065114","triId":null,"camdId":null,"eisId":"12587811","name":"DENBURY ONSHORE LLC, OLIVE FIELD EOR FACILITY","address":"7969 ROBERT JONES ROAD","city":"SUMMIT","state":"MS","zip":"39666","lat":31.314732,"lon":-90.549218,"permitType":"Federally Reportable Minor","isMajor":false,"hasHpv":false,"dataSource":"ECHO","naics":"211111","sector":"Oil & Gas","hasNei2023":false},{"id":"110023149797","triId":null,"camdId":null,"eisId":null,"name":"DENBURY ONSHORE LLC, SOSO CENTRAL PROCESSING FACILITY","address":"473 COUNTY ROAD 5331","city":"SOSO","state":"MS","zip":"39480","lat":31.805194,"lon":-89.282556,"permitType":"Synthetic Minor","isMajor":false,"hasHpv":false,"dataSource":"ECHO","naics":"211111","sector":"Oil & Gas","hasNei2023":false},{"id":"110037584423","triId":null,"camdId":null,"eisId":"16516311","name":"DENBURY ONSHORE LLC, TINSLEY CENTRAL FACILITY","address":"TINLSEY ROAD","city":"TINSLEY","state":"MS","zip":"39194","lat":32.689074,"lon":-90.438049,"permitType":"Synthetic Minor","isMajor":false,"hasHpv":false,"dataSource":"ECHO","naics":"211111","sector":"Oil & Gas","hasNei2023":false},{"id":"110002204481","triId":null,"camdId":null,"eisId":null,"name":"DENNIS-MCREE AUTO ELECTRIC","address":"114 FAIRMONT DRIVE","city":"MISSISSIPPI","state":"MS","zip":"39208","lat":32.308449,"lon":-90.04717,"permitType":"Other","isMajor":false,"hasHpv":false,"dataSource":"ECHO","naics":"999999","sector":"Other","hasNei2023":false},{"id":"110001471791","triId":null,"camdId":null,"eisId":"7305311","name":"DEPENDABLE ABRASIVES INC","address":"63 SAND ROAD","city":"WIGGINS","state":"MS","zip":"39577","lat":30.831967,"lon":-89.233339,"permitType":"Federally Reportable Minor","isMajor":false,"hasHpv":false,"dataSource":"ECHO","naics":"212322","sector":"Other","hasNei2023":false},{"id":"110043576341","triId":null,"camdId":null,"eisId":null,"name":"DESOTO CONCRETE PRODUCTS INC, NEW ALBANY","address":"978 HIGHWAY 30 EAST","city":"NEW ALBANY","state":"MS","zip":"38652","lat":34.496778,"lon":-88.976583,"permitType":"Other","isMajor":false,"hasHpv":false,"dataSource":"ECHO","naics":"999999","sector":"Other","hasNei2023":false},{"id":"110000748549","triId":"39577DSTTR941SM 39577TMCNCSOUTH","camdId":null,"eisId":null,"name":"DESOTO TREATED MATERIALS INC","address":"941 SOUTH MAGNOLIA DRIVE","city":"WIGGINS","state":"MS","zip":"39577","lat":30.843806,"lon":-89.137556,"permitType":"Federally Reportable Minor","isMajor":false,"hasHpv":false,"dataSource":"ECHO","naics":"321114","sector":"Wood Products","hasNei2023":false},{"id":"110016787351","triId":null,"camdId":null,"eisId":"6251511","name":"DESTIN PIPELINE COMPANY LLC, PASCAGOULA COMPRESSOR STATION","address":"6812 STENNIS BOULEVARD","city":"MOSS POINT","state":"MS","zip":"39562","lat":30.383817,"lon":-88.495933,"permitType":"Major","isMajor":true,"hasHpv":false,"dataSource":"ECHO","naics":"221210","sector":"Other","hasNei2023":true},{"id":"110007108209","triId":null,"camdId":null,"eisId":null,"name":"DICKERSON AND BOWEN INC, BROOKHAVEN ASPHALT PLANT NUMBER 5","address":"983 OLD HIGHWAY 51","city":"BROOKHAVEN","state":"MS","zip":"39601","lat":31.591861,"lon":-90.424083,"permitType":"Federally Reportable Minor","isMajor":false,"hasHpv":false,"dataSource":"ECHO","naics":"324121 999999","sector":"Refinery","hasNei2023":false},{"id":"110007108174","triId":null,"camdId":null,"eisId":"7168811","name":"DICKERSON AND BOWEN INC, CARTHAGE ASPHALT PLANT #4","address":"HIGHWAY 16 EAST","city":"CARTHAGE","state":"MS","zip":"39051","lat":32.751528,"lon":-89.491361,"permitType":"Federally Reportable Minor","isMajor":false,"hasHpv":false,"dataSource":"ECHO","naics":"324121","sector":"Refinery","hasNei2023":false},{"id":"110071723713","triId":null,"camdId":null,"eisId":null,"name":"DICKERSON AND BOWEN INC, JACKSON ASPHALT PLANT #6","address":"2642 GALLATIN STREET","city":"JACKSON","state":"MS","zip":"39204","lat":32.269583,"lon":-90.192861,"permitType":"Federally Reportable Minor","isMajor":false,"hasHpv":false,"dataSource":"ECHO","naics":"324121","sector":"Refinery","hasNei2023":false},{"id":"110043962094","triId":null,"camdId":null,"eisId":null,"name":"DICKERSON AND BOWEN INC, MCCOMB ASPHALT PLANT #7","address":"1192 HIGHWAY 98 EAST","city":"MCCOMB","state":"MS","zip":"39648","lat":31.1778964,"lon":-90.3852122,"permitType":"Federally Reportable Minor","isMajor":false,"hasHpv":false,"dataSource":"ECHO","naics":"324121","sector":"Refinery","hasNei2023":false},{"id":"110001977086","triId":null,"camdId":null,"eisId":null,"name":"DICKERSON'S AUTO CENTER","address":"4074 NORTHVIEW DR","city":"JACKSON","state":"MS","zip":"00000","lat":32.35215,"lon":-90.17656,"permitType":"Federally Reportable Minor","isMajor":false,"hasHpv":false,"dataSource":"ECHO","naics":"999999","sector":"Other","hasNei2023":false},{"id":"110001977451","triId":null,"camdId":null,"eisId":null,"name":"DISCOUNT TIRE WORLD","address":"115 RIDGELAND PLAZA","city":"RIDGELAND","state":"MS","zip":"00000","lat":32.417149,"lon":-90.136362,"permitType":"Other","isMajor":false,"hasHpv":false,"dataSource":"ECHO","naics":"999999","sector":"Other","hasNei2023":false},{"id":"110002213970","triId":"39401KHLRC182JO","camdId":null,"eisId":"7071911","name":"DISCOVERY ENERGY LLC, ENGINE PLANT NUMBER 1","address":"182 JOHN MERL TATUM INDUSTRIAL DRIVE","city":"HATTIESBURG","state":"MS","zip":"39401","lat":31.266667,"lon":-89.270556,"permitType":"Synthetic Minor","isMajor":false,"hasHpv":false,"dataSource":"ECHO","naics":"333618","sector":"Other","triYears":["2024","2023","2022","2021","2020","2019","2018","2017","2016"],"hasNei2023":false},{"id":"110071724088","triId":null,"camdId":null,"eisId":null,"name":"DISCOVERY ENERGY LLC, ENGINE PLANT NUMBER 2","address":"95 W L RUNNELS INDUSTRIAL DRIVE","city":"HATTIESBURG","state":"MS","zip":"39401","lat":31.259722,"lon":-89.26,"permitType":"Major","isMajor":true,"hasHpv":false,"dataSource":"ECHO","naics":"333618","sector":"Other","hasNei2023":false},